geolocation_zip_code_prefix,geolocation_lat,geolocation_lng,geolocation_city,geolocation_state
6412,-23.497835562081068,-46.88298195892088,barueri,SP
3707,-23.507041164897466,-46.54332428216681,sao paulo,SP
5406,-23.55575213466013,-46.67446254211961,são paulo,SP
99709,-27.66100705999997,-52.28539095499997,erechim,RS
31310,-19.8695664276935,-43.986149490305145,belo horizonte,MG
96770,-30.59740639666564,-51.75378566114182,cerro grande do sul,RS
18130,-23.53311739936141,-47.13636520779054,sao roque,SP
37501,-22.430667889783663,-45.43416474917089,itajuba,MG
64049,-5.060431226879147,-42.79244303434942,teresina,PI
20911,-22.899087618096825,-43.23812418927815,rio de janeiro,RJ
64053,-5.073101802501713,-42.75747257843306,teresina,PI
88160,-27.491174255266262,-48.655137010532535,biguacu,SC
58900,-6.893265685368644,-38.54583682850136,cajazeiras,PB
83602,-25.47720581328747,-49.54947900695458,campo largo,PR
53370,-7.989850561746257,-34.86005103136361,olinda,PE
88015,-27.589186550377956,-48.55336185749314,florianopolis,SC
20220,-22.894834630590317,-43.18629246681872,rio de janeiro,RJ
4367,-23.65250284762537,-46.66809535567546,são paulo,SP
27331,-22.55691069933447,-44.150331585667296,barra mansa,RJ
15895,-20.906248646542743,-49.26842882540205,cedral,SP
64804,-6.770409057676563,-43.01409504554493,floriano,PI
78455,-13.085433583393897,-55.91086325853989,lucas do rio verde,MT
9510,-23.611394231750257,-46.57126189301168,sao caetano do sul,SP
5546,-23.586056539269457,-46.76795801511922,sao paulo,SP
95180,-29.24326612494757,-51.34697740889244,farroupilha,RS
7909,-23.287561434866195,-46.7472779073959,francisco morato,SP
13205,-23.248808989179956,-46.850808908679134,jundiai,SP
70338,-15.802447500000005,-47.89163925,brasilia,DF
89865,-26.90164589024936,-52.90727255297837,nova erechim,SC
6020,-23.53390455494421,-46.76068598979643,osasco,SP
5421,-23.566782698309176,-46.69077481571351,sao paulo,SP
3646,-23.52342016403137,-46.53006098265909,sao paulo,SP
48611,-9.37877791978522,-38.23104862204778,paulo afonso,BA
5849,-23.651114842510157,-46.75521082321932,sao paulo,SP
3585,-23.55989029087078,-46.48964243935025,sao paulo,SP
59031,-5.804880170696479,-35.210498721334226,natal,RN
21540,-22.848506255900496,-43.34135853649948,rio de janeiro,RJ
90610,-30.049385050781986,-51.20075328005073,porto alegre,RS
58042,-7.120479946194335,-34.847040399532126,joao pessoa,PB
20230,-22.914044644180308,-43.18230254232787,rio de janeiro,RJ
12323,-23.321956913959276,-45.982996732442736,jacarei,SP
58103,-7.002283417046451,-34.83013333189138,cabedelo,PB
4714,-23.632693819034685,-46.69827511807522,sao paulo,SP
40725,-12.865884536889029,-38.4746795886935,salvador,BA
31515,-19.826454300447867,-43.96695849116693,belo horizonte,MG
14403,-20.56066402659196,-47.39662137699117,franca,SP
35931,-19.8402892906383,-43.19156865698298,joao monlevade,MG
22630,-23.00788912101101,-43.334463714813374,rio de janeiro,RJ
78500,-10.814890937214688,-55.45288762498375,colider,MT
30493,-19.97485632777431,-43.96587960629584,belo horizonte,MG
31748,-19.8076860313636,-43.92862916570483,belo horizonte,MG
85555,-26.49171537732586,-51.99137317841668,palmas,PR
91750,-30.12831805689883,-51.20583311463438,porto alegre,RS
38703,-18.58114683404142,-46.49569647339097,patos de minas,MG
76864,-9.367131425048791,-62.58165907682626,cujubim,RO
85010,-25.38537620228552,-51.47023466816962,guarapuava,PR
45325,-13.105979999999994,-39.79281825,brejoes,BA
1223,-23.544707543424398,-46.64514974562872,sao paulo,SP
88061,-27.57536039107843,-48.42585809908247,florianopolis,SC
77824,-7.180410237432105,-48.22037695696618,araguaina,TO
14706,-20.93743098919268,-48.49893960674954,bebedouro,SP
39804,-17.867405583805734,-41.52353905664773,teofilo otoni,MG
11701,-24.013554844964432,-46.41971596259816,praia grande,SP
21235,-22.83377814197452,-43.32416055805429,rio de janeiro,RJ
36887,-21.127722317790983,-42.40096526894223,muriae,MG
53050,-7.969752116279156,-34.83938217040803,olinda,PE
24130,-22.8813535434244,-43.08171305245543,niteroi,RJ
4313,-23.642132605055085,-46.640501649316185,sao paulo,SP
83323,-25.44214534499965,-49.1994222423105,pinhais,PR
3525,-23.550709589503185,-46.513499337642045,são paulo,SP
26298,-22.835532337568964,-43.60744980299447,nova iguacu,RJ
6714,-23.597330218968303,-46.8766514109295,cotia,SP
15093,-20.852102908819766,-49.41834111193263,são josé do rio preto,SP
9080,-23.642685447715326,-46.54364186192882,santo andre,SP
1227,-23.537290101005617,-46.6544308936015,sao paulo,SP
4348,-23.64575947905241,-46.65050767361068,sao paulo,SP
8633,-23.56869131441261,-46.32496534325951,suzano,SP
97010,-29.67993920927345,-53.8050654225576,santa maria,RS
14570,-20.195142728675528,-47.710969118439856,buritizal,SP
15110,-20.797167233445176,-49.22521813609393,guapiacu,SP
23076,-22.88617141326678,-43.57569185068379,rio de janeiro,RJ
21775,-22.88055872548918,-43.44551487108313,rio de janeiro,RJ
59318,-6.661383162122287,-37.39013960957048,serra negra do norte,RN
23525,-22.947459295861023,-43.68115271650822,rio de janeiro,RJ
1504,-23.57310994976627,-46.64012396918465,são paulo,SP
20941,-22.904541733827728,-43.217971836805326,rio de janeiro,RJ
85810,-24.95397353952925,-53.46500041173757,cascavel,PR
18710,-23.134777922940643,-49.05287046020279,arandu,SP
3641,-23.525166719401,-46.53662341326677,sao paulo,SP
27281,-22.50190946655892,-44.11053077546311,volta redonda,RJ
38411,-18.933832447917315,-48.282976662396464,uberlandia,MG
38410,-18.95429824701369,-48.231299839027024,uberlândia,MG
36033,-21.782269215101827,-43.36501077254892,juiz de fora,MG
83303,-25.42471825196389,-49.08108432384139,piraquara,PR
97576,-30.88987217815677,-55.49219251456286,santana do livramento,RS
16207,-21.30431420437884,-50.37425707954847,birigui,SP
85660,-25.76468638403388,-53.07436047449257,dois vizinhos,PR
63300,-6.755386742362436,-38.96694518611535,lavras da mangabeira,CE
45000,-14.846054363869769,-40.84537490536092,vitoria da conquista,BA
22461,-22.959623415177656,-43.2079170800117,rio de janeiro,RJ
36420,-20.5338026267639,-43.71037915243686,ouro branco,MG
3033,-23.52652758451152,-46.622758678458105,sao paulo,SP
23580,-22.910699999999963,-43.63062999999994,rio de janeiro,RJ
5136,-23.50421532722604,-46.74884388536562,sao paulo,SP
15990,-21.60096981043339,-48.367290630446064,matao,SP
5868,-23.66959113405276,-46.77817042131687,sao paulo,SP
89897,-27.096263661201125,-53.5944004242853,sao joao do oeste,SC
3811,-23.490358459893827,-46.48005733443939,sao paulo,SP
13720,-21.599082100198267,-46.8805141638693,sao jose do rio pardo,SP
8341,-23.60326466448321,-46.45334981108343,sao paulo,SP
6020,-23.535839005222797,-46.76346851488806,osasco,SP
31170,-19.882170337252617,-43.92365793791228,belo horizonte,MG
78050,-15.58027272133767,-56.0650519526469,cuiaba,MT
83321,-25.45121016094431,-49.17870209143641,pinhais,PR
35500,-20.13205481228597,-44.8625702705038,divinopolis,MG
5265,-23.449902150152923,-46.7894070051359,sao paulo,SP
96840,-29.739978141118435,-52.43066616316374,santa cruz do sul,RS
39492,-15.60295199487818,-44.39193685851193,pedras de maria da cruz,MG
59032,-5.805299293929205,-35.218354028997666,natal,RN
99470,-28.45320438897753,-52.81673083960021,nao-me-toque,RS
76100,-16.519633003305827,-50.36938746852181,sao luis de montes belos,GO
13574,-22.026279300305845,-47.90294809325409,sao carlos,SP
1223,-23.54382947100233,-46.64828211226845,sao paulo,SP
86072,-23.28766500776161,-51.20015311339363,londrina,PR
6663,-23.564524489893525,-46.942295672607074,itapevi,SP
89124,-26.795749015089783,-49.360477556413386,benedito novo,SC
35240,-19.18303035626492,-41.47612952874701,conselheiro pena,MG
39900,-16.17715431695688,-40.68917334413215,almenara,MG
30112,-19.937586290582324,-43.94297288259566,belo horizonte,MG
90520,-30.009962536211034,-51.1821818381903,porto alegre,RS
5181,-23.4523434343586,-46.74383044463039,são paulo,SP
85340,-25.48821101058597,-52.52463073233731,rio bonito do iguaçu,PR
14960,-21.466987035533883,-49.22355290614517,novo horizonte,SP
19360,-21.97949319373491,-51.66035580406355,santo anastácio,SP
62045,-3.7074701709999545,-40.33957037699997,sobral,CE
73060,-15.638320492499036,-47.82324524965903,brasília,DF
79750,-22.24363105529635,-53.34478015823405,nova andradina,MS
62650,-3.622884636580328,-39.51173583764039,uruburetama,CE
86078,-23.28015750573048,-51.14673507898148,londrina,PR
53640,-7.831465186796644,-34.91872407438395,igarassu,PE
38360,-18.682265999999945,-49.568232499999965,capinopolis,MG
84015,-25.07401547515726,-50.16111271717929,ponta grossa,PR
57150,-9.59493906325407,-35.95303568917801,pilar,AL
7745,-23.376933965899678,-46.71998452752958,caieiras,SP
15290,-21.07263215449987,-50.13998484629895,buritama,SP
99680,-27.730357797488207,-52.997726157831096,constantina,RS
4128,-23.602883510964272,-46.63260033527612,sao paulo,SP
39950,-16.380093854807228,-40.53854830945984,rubim,MG
18130,-23.53848139083681,-47.13561247723564,sao roque,SP
93224,-29.833896942356294,-51.14069677529445,sapucaia do sul,RS
13318,-23.32242190396706,-45.92040676502236,jacare,SP
4292,-23.620151503750908,-46.6147215,sao paulo,SP
48460,-11.240734084731256,-38.480697075563,nova soure,BA
48360,-11.664049223904328,-38.0204213674724,acajutiba,BA
4852,-23.760223648010523,-46.6587585694206,sao paulo,SP
38735,-18.946216059836964,-46.67335366470959,cruzeiro da fortaleza,MG
3521,-23.545181043020364,-46.516232200386646,sao paulo,SP
35845,-19.168507924969862,-43.71391355264512,santana do riacho,MG
59560,-5.619656259093937,-35.65659034187206,poco branco,RN
8715,-23.52787955236281,-46.18798249896359,mogi das cruzes,SP
60192,-3.7466458431819767,-38.482435503058426,fortaleza,CE
85770,-25.765207136817903,-53.53937696885487,realeza,PR
23520,-22.932964791563265,-43.673679256592976,rio de janeiro,RJ
3129,-23.581577210658423,-46.5812873119626,sao paulo,SP
94828,-29.99834759207785,-51.05873650566808,alvorada,RS
86058,-23.348334768868305,-51.210697538480616,londrina,PR
47600,-13.250374811915348,-43.41589186393552,bom jesus da lapa,BA
20521,-22.92813167583237,-43.22820068344975,rio de janeiro,RJ
17300,-22.382094864632062,-48.3940572556612,dois corregos,SP
70775,-15.73898331204695,-47.89687287310593,brasilia,DF
18150,-23.64526838690991,-47.24070463129987,ibiuna,SP
44380,-12.674545130992412,-39.0992732088334,cruz das almas,BA
13835,-22.344930566664363,-47.16727220810125,conchal,SP
68040,-2.42424693946656,-54.732982865137096,santarem,PA
30310,-19.941395752149575,-43.92676116279063,belo horizonte,MG
43820,-12.675396182499384,-38.54035780812343,candeias,BA
36060,-21.749066612816705,-43.3378106246177,juiz de fora,MG
46445,-14.300158499956634,-43.76936249995662,carinhanha,BA
2215,-23.491512586733226,-46.5830327514571,sao paulo,SP
20770,-22.89844010101571,-43.28117498222639,rio de janeiro,RJ
21750,-22.87659898612154,-43.41818306564138,rio de janeiro,RJ
41192,-12.953015083041736,-38.45716757913646,salvador,BA
6620,-23.54528801750423,-46.89114227179949,jandira,SP
31742,-19.83605337108313,-43.93223553595124,belo horizonte,MG
69930,-10.653856380209971,-68.50660240740798,xapuri,AC
33110,-19.7856755915264,-43.9198840965637,santa luzia,MG
75940,-17.337978413049168,-49.91893890401489,edeia,GO
80230,-25.44430729447745,-49.267530172773945,curitiba,PR
6715,-23.61300261226844,-46.88139388343239,cotia,SP
22270,-22.951176126871943,-43.191608422411726,rio de janeiro,RJ
95650,-29.575048000680656,-50.79167960105744,igrejinha,RS
75555,-17.738595883906225,-49.80425668854811,vicentinopolis,GO
95110,-29.190739726184223,-51.21888482272712,caxias do sul,RS
14075,-21.12636239578164,-47.78246990743838,ribeirao preto,SP
38610,-16.360566512943674,-46.89987493979551,unai,MG
1410,-23.562466386346568,-46.660461365110514,são paulo,SP
74365,-16.719399871264653,-49.31513179538395,goiania,GO
80610,-25.473347011596545,-49.29177433801407,curitiba,PR
40255,-12.968189946996311,-38.49460954426112,salvador,BA
50760,-8.069871179797886,-34.92144550763987,recife,PE
13033,-22.907859936898383,-47.09641391592199,campinas,SP
12309,-23.31192507799065,-45.95725269317328,jacarei,SP
15050,-20.78579283504101,-49.37068905508143,são josé do rio preto,SP
4254,-23.61806178573489,-46.5945323993883,são paulo,SP
38295,-19.549928366880337,-50.58173447655842,limeira do oeste,MG
29703,-19.52720651564545,-40.63640584404747,colatina,ES
13400,-22.723588423278763,-47.65062528671584,piracicaba,SP
29900,-19.40569064558096,-40.068098921443664,linhares,ES
6144,-23.56587723925207,-46.79838137760401,osasco,SP
13504,-22.396277681660745,-47.56972040940028,rio claro,SP
51021,-8.122956496249085,-34.904240999999985,recife,PE
21042,-22.869157499999996,-43.240473,rio de janeiro,RJ
36660,-21.877981553766748,-42.69189771017911,alem paraiba,MG
8535,-23.55459465371205,-46.39079922530495,ferraz de vasconcelos,SP
95076,-29.179915473573093,-51.14633373205131,caxias do sul,RS
29168,-20.1651694565756,-40.251859962808,serra,ES
6362,-23.557854219750578,-46.84198397425782,carapicuiba,SP
59650,-5.5706868546211625,-36.92508023545071,acu,RN
88110,-27.567661757431893,-48.611076918436176,sao jose,SC
27913,-22.38174513435458,-41.77092747232096,macaé,RJ
38066,-19.73351389869582,-47.94179775076461,uberaba,MG
55400,-8.67178782124503,-35.72856689103784,catende,PE
36415,-20.499330034144,-43.8526854535605,congonhas,MG
40450,-12.9367895656414,-38.5015961312828,salvador,BA
30530,-19.93167952510253,-43.99664332944775,belo horizonte,MG
4475,-23.70370428726409,-46.63483367692889,são paulo,SP
73840,-13.043164635811667,-46.77095614792221,campos belos,GO
34004,-19.99080138799997,-43.86871596599997,nova lima,MG
86802,-23.57323421270957,-51.487191155541794,apucarana,PR
88035,-27.59074140244673,-48.50558944353386,florianopolis,SC
11680,-23.49725706472024,-45.07453295225644,ubatuba,SP
36330,-21.0245006901765,-44.22310384907417,coronel xavier chaves,MG
85812,-24.951247468520823,-53.452209238675145,cascavel,PR
66083,-1.4230682015118212,-48.47821623203871,belem,PA
31814,-19.854079606440063,-43.92344263113856,belo horizonte,MG
68600,-1.0598857571852494,-46.7672559623839,braganca,PA
60761,-3.814062255063778,-38.56970673827113,fortaleza,CE
35680,-20.0794742138839,-44.57797599748246,itauna,MG
4533,-23.584026436580302,-46.67927076242137,sao paulo,SP
50050,-8.05670522176693,-34.879725879825706,recife,PE
26600,-22.604454357836115,-43.70809513003068,paracambi,RJ
64020,-5.094742635983,-42.75385123636419,teresina,PI
3362,-23.56531328810082,-46.54358417485143,são paulo,SP
37132,-21.439684407532397,-45.9479499782576,alfenas,MG
24901,-22.93598294819515,-42.819636019650765,marica,RJ
14805,-21.73743402067743,-48.18928431771894,araraquara,SP
1421,-23.56594070217565,-46.65711352357333,sao paulo,SP
65990,-7.367512922400774,-46.62580830178512,riachao,MA
2417,-23.47574052178431,-46.6308894970858,sao paulo,SP
88809,-28.673272507372097,-49.38519214426931,criciuma,SC
72801,-16.2569797242301,-47.95685184425948,luziania,GO
18400,-23.97754351323861,-48.87642071516,itapeva,SP
38412,-18.95397717958328,-48.32153775797796,uberlandia,MG
9407,-23.70228934383916,-46.38713561793056,ribeirao pires,SP
13615,-22.165112479310466,-47.377145493399006,leme,SP
38240,-19.90662148232285,-49.36575977185485,itapagipe,MG
13419,-22.725235308096128,-47.63678554339573,piracicaba,SP
77635,-9.34735964707746,-47.89539577223128,rio sono,TO
11430,-23.99283525950717,-46.28167471357261,guaruja,SP
39404,-16.71806969248079,-43.82420010159262,montes claros,MG
19023,-22.105506286192934,-51.39621521734734,presidente prudente,SP
88048,-27.64441001566128,-48.47653363335797,florianopolis,SC
89012,-26.90773221735596,-49.07299886892038,blumenau,SC
83323,-25.44227833279462,-49.187708015263446,pinhais,PR
28860,-22.476160434879173,-42.20258734188904,casimiro de abreu,RJ
15200,-21.05991798229821,-49.6807963249186,jose bonifacio,SP
19911,-22.97470441271852,-49.86543029516994,ourinhos,SP
11050,-23.960770072162266,-46.3263999672514,santos,SP
75906,-17.806518217969487,-50.92489071702041,rio verde,GO
95603,-29.65681168621237,-50.778530769023696,taquara,RS
8290,-23.54749390674591,-46.44811416541637,sao paulo,SP
11425,-23.99936046561922,-46.30457616495973,guaruja,SP
8030,-23.4994176880374,-46.42309318013155,sao paulo,SP
89885,-27.081713491026825,-53.00228564111325,sao carlos,SC
47590,-11.823920485694494,-42.61261351023481,ipupiara,BA
82010,-25.42997694754457,-49.33161111697164,curitiba,PR
8140,-23.506893303912523,-46.39580291243005,sao paulo,SP
20541,-22.915426002221704,-43.24064067291819,rio de janeiro,RJ
83601,-25.45768002607436,-49.533010451891336,campo largo,PR
17020,-22.305952466558928,-49.067254337613406,bauru,SP
9210,-23.6427074834958,-46.52794217430317,santo andre,SP
45028,-14.86454204494485,-40.821350845251935,vitoria da conquista,BA
36889,-21.1307454579361,-42.35372247476166,muriae,MG
31275,-19.85678164028517,-43.961851393011685,belo horizonte,MG
8690,-23.494732948570743,-46.32028456778965,suzano,SP
68825,-1.534093748641217,-49.22569495054596,muana,PA
71939,-15.792332777433858,-47.84828094435846,brasilia,DF
88107,-27.58377641773498,-48.66947983487978,sao jose,SC
55900,-7.558697179437101,-35.00870493368639,goiana,PE
5524,-23.595176189566608,-46.74183651471519,sao paulo,SP
37175,-20.942387005120565,-45.826558283827815,ilicinea,MG
23067,-22.884553634196983,-43.62078472162269,rio de janeiro,RJ
9810,-23.72050943876393,-46.570532645873776,são bernardo do campo,SP
56260,-7.649241773870898,-40.1494149019098,ipubi,PE
13322,-23.196941308355928,-47.2721972267586,salto,SP
65636,-5.096812995128774,-42.84217976047128,timon,MA
39402,-16.729038838738578,-43.84194566111719,montes claros,MG
60841,-3.81504269460783,-38.49194172811848,fortaleza,CE
3958,-23.592948579519863,-46.48700118971082,sao paulo,SP
30140,-19.931484949766265,-43.93633883458364,belo horizonte,MG
14811,-21.78283380598999,-48.15300832584105,araraquara,SP
6410,-23.50130920681669,-46.870817876164544,barueri,SP
88301,-26.9114055831225,-48.660228153030616,itajai,SC
4403,-23.6751052057597,-46.66206770436963,sao paulo,SP
74916,-16.767518086439587,-49.28470195916342,aparecida de goiania,GO
31910,-19.81693683298715,-43.99083078659973,belo horizonte,MG
5440,-23.5464903075192,-46.69229742991519,são paulo,SP
3190,-23.566189817832075,-46.57445780280693,sao paulo,SP
20560,-22.918628251745545,-43.267432170408014,rio de janeiro,RJ
11085,-23.93355203886542,-46.34685431695426,santos,SP
9930,-23.6697261847723,-46.61722423351534,diadema,SP
53439,-7.942667845449267,-34.82490194537761,paulista,PE
18230,-23.875743729888583,-48.00609634136165,sao miguel arcanjo,SP
24110,-22.870341000000003,-43.10403075000001,niterói,RJ
24722,-22.80054962769348,-42.97607294005053,sao goncalo,RJ
35560,-20.096705314892176,-45.28561493707048,santo antonio do monte,MG
20551,-22.91853488980902,-43.24672658021234,rio de janeiro,RJ
9920,-23.683234734139088,-46.62619990757543,diadema,SP
3325,-23.55196894976627,-46.559483056350565,sao paulo,SP
1102,-23.52261021648681,-46.62942387523806,são paulo,SP
54505,-8.291238285879116,-35.038986301286805,cabo de santo agostinho,PE
88140,-27.70751506480606,-48.74987012627644,santo amaro da imperatriz,SC
75650,-17.731180052925293,-49.09186474714031,morrinhos,GO
28950,-22.75583035323457,-41.88707498452222,armacao dos buzios,RJ
81320,-25.47727317456296,-49.32436710519932,curitiba,PR
18605,-22.912976437225065,-48.43720527499613,botucatu,SP
18540,-23.196811288446547,-47.52268959122089,porto feliz,SP
66079,-1.4720669999999956,-48.45505274999999,belem,PA
21231,-22.83226705023373,-43.32079214403609,rio de janeiro,RJ
75380,-16.669548490668245,-49.4956748719769,trindade,GO
7996,-23.30107821729435,-46.72417894589592,francisco morato,SP
25615,-22.5028322465946,-43.15333939912038,petropolis,RJ
11443,-23.981309088262428,-46.20343095559465,guaruja,SP
19360,-21.984596676632677,-51.65241435990707,santo anastacio,SP
85502,-26.23249800782283,-52.684572765887125,pato branco,PR
75640,-17.288724613593352,-49.019580654185646,piracanjuba,GO
48903,-9.413132050597078,-40.5000638202516,juazeiro,BA
83020,-25.56138683819032,-49.20130436955392,sao jose dos pinhais,PR
83880,-26.089337485537527,-49.78486534806623,rio negro,PR
6365,-23.546196,-46.86027974999999,carapicuiba,SP
13323,-23.220845298084143,-47.26823757744238,salto,SP
78195,-15.460110886239042,-55.74805034285655,chapada dos guimaraes,MT
15057,-20.79859684321499,-49.34746023878177,são josé do rio preto,SP
70867,-15.747268499999992,-47.883141,brasilia,DF
36780,-21.31273640584922,-42.86599102063862,astolfo dutra,MG
24020,-22.89428279372572,-43.12073703239408,niteroi,RJ
45657,-14.806807268235644,-39.06178155783657,ilhéus,BA
81925,-25.54678021565008,-49.26489711740432,curitiba,PR
35860,-19.03055653332085,-43.42358092653923,conceicao do mato dentro,MG
84990,-24.132842916231745,-49.82196537010345,arapoti,PR
2323,-23.44008769366094,-46.5806274478656,sao paulo,SP
6610,-23.524186067799068,-46.92088103105522,jandira,SP
87030,-23.41174761024164,-51.92853265581503,maringa,PR
6634,-23.56134812886392,-46.90544617692725,jandira,SP
3817,-23.490700564256414,-46.49306703344107,sao paulo,SP
32400,-20.022568719878528,-44.06012982792188,ibirite,MG
76290,-15.818435592326882,-50.604614818875405,itapirapua,GO
83005,-25.533355787296163,-49.20309780317596,são josé dos pinhais,PR
85875,-25.44692662818483,-54.39970593517461,santa terezinha de itaipu,PR
9721,-23.720314500000004,-46.5483285,sao bernardo do campo,SP
3058,-23.53939015598129,-46.59351308381903,são paulo,SP
90050,-30.039979148219675,-51.220221098245744,porto alegre,RS
55500,-8.374578263826399,-35.23509974181599,escada,PE
89216,-26.29903258006812,-48.876323872468106,joinville,SC
12248,-23.172405642795333,-45.79320564363206,sao jose dos campos,SP
17201,-22.30065684124874,-48.55845617845811,jaú,SP
89251,-26.49381845849732,-49.07086001211406,jaragua do sul,SC
75370,-16.521085223380997,-49.41148318229864,goianira,GO
39860,-17.840720707288714,-40.353341465980165,nanuque,MG
7957,-23.27757621417741,-46.73155454618026,francisco morato,SP
5311,-23.52773504312137,-46.73639800210442,sao paulo,SP
14405,-20.535879115539217,-47.420169586470415,franca,SP
68701,-1.200468244145874,-47.17693616010803,capanema,PA
22631,-23.004938808211687,-43.32992826340231,rio de janeiro,RJ
29305,-20.85604143980829,-41.10676944375546,cachoeiro de itapemirim,ES
27460,-22.72987507382089,-44.13860349914553,rio claro,RJ
11410,-23.99682999318121,-46.26573255631319,guaruja,SP
30575,-19.98129280131236,-43.978401355714944,belo horizonte,MG
4144,-23.61661758451152,-46.636536620174304,sao paulo,SP
75800,-17.895232643670617,-51.72615768618318,jataí,GO
95893,-29.424674279257477,-51.76627420439137,westfalia,RS
11045,-23.969284459893828,-46.32717677491483,santos,SP
79990,-23.101934865325045,-55.22423615672521,amambai,MS
3472,-23.575014760603583,-46.52248323952327,sao paulo,SP
75960,-17.40242454385533,-50.37702693194672,acreuna,GO
18075,-23.47154984561517,-47.46957010532606,sorocaba,SP
22790,-23.01691263252354,-43.4546035264875,rio de janeiro,RJ
32340,-19.93459087937797,-44.04779420311587,contagem,MG
18720,-23.374793262386337,-48.72616616106461,paranapanema,SP
15502,-20.41182556363203,-49.98119161427661,votuporanga,SP
78555,-11.84071107993273,-55.51407414497419,sinop,MT
90020,-30.02751069164407,-51.22397149471986,porto alegre,RS
78515,-10.632969000000005,-55.71161549999999,nova canaã do norte,MT
2402,-23.48629424311855,-46.62780417969884,sao paulo,SP
3883,-23.50949996452603,-46.482234348228864,sao paulo,SP
30840,-19.89255954203941,-43.998093435051096,belo horizonte,MG
85640,-25.919675881806764,-53.471624487829295,ampere,PR
35160,-19.478153316117545,-42.5251939664147,ipatinga,MG
91787,-30.14891274647851,-51.16426303527918,porto alegre,RS
13271,-22.976309689236828,-47.02549061495469,valinhos,SP
13180,-22.81777501170756,-47.23399632473948,sumare,SP
22621,-23.00760323757864,-43.31456264446878,rio de janeiro,RJ
99700,-27.63476848098565,-52.28029411864509,erechim,RS
18440,-23.866079861683723,-49.14046304526399,itabera,SP
36015,-21.758249891482457,-43.35410741395927,juiz de fora,MG
84010,-25.09923790674591,-50.15765158771416,ponta grossa,PR
36594,-20.667593370141145,-42.52239943165412,araponga,MG
19300,-22.00465787362055,-51.5574263470105,presidente bernardes,SP
38400,-18.89975330169083,-48.26033364516125,uberlândia,MG
2271,-23.471106852068782,-46.59048890022503,sao paulo,SP
89600,-27.178561191623206,-51.51110400835314,joacaba,SC
48110,-12.35324284109187,-38.37857984318489,catu,BA
12850,-22.69082721169004,-44.32135544551927,bananal,SP
88400,-27.41241051109241,-49.60321580745104,ituporanga,SC
1435,-23.578977666945573,-46.67103134055624,sao paulo,SP
38600,-17.242911,-46.87391474999998,paracatu,MG
25535,-22.79099101587699,-43.40078496669409,sao joao de meriti,RJ
30620,-19.98876805274388,-44.00144732347512,belo horizonte,MG
37504,-22.429354883706527,-45.49396650410897,itajuba,MG
13033,-22.9094291312828,-47.09697306272721,campinas,SP
28910,-22.88600954352364,-42.0384836987553,cabo frio,RJ
11703,-24.01708806673343,-46.45868020216099,praia grande,SP
20221,-22.89797766388716,-43.194093459201326,rio de janeiro,RJ
95660,-29.517630396032136,-50.77908434368399,tres coroas,RS
7439,-23.39741858631333,-46.27185358029486,aruja,SP
35501,-20.152203350201717,-44.89218739710629,divinopolis,MG
4128,-23.602765475237977,-46.63530842279597,sao paulo,SP
22220,-22.929346739656097,-43.1751384328294,rio de janeiro,RJ
5842,-23.650322112960936,-46.74200206647812,sao paulo,SP
69060,-3.101570044451315,-60.00135388431438,manaus,AM
3051,-23.54103228365742,-46.61266290911184,sao paulo,SP
25730,-22.42418515398583,-43.130821932744674,petropolis,RJ
37044,-21.55362256301305,-45.42253650191801,varginha,MG
83540,-25.186510876159478,-49.31298110840416,rio branco do sul,PR
14021,-21.22348344991864,-47.79760921317034,ribeirao preto,SP
4348,-23.64565706839869,-46.65079632121232,sao paulo,SP
3022,-23.52518639578163,-46.60345128420568,sao paulo,SP
12515,-22.807597722321,-45.19072416743778,guaratingueta,SP
89258,-26.48986457566359,-49.059308933493696,jaraguá do sul,SC
4272,-23.603870661117195,-46.61468259201335,sao paulo,SP
94818,-30.009795927984,-51.05988837380158,alvorada,RS
69053,-3.099494179294823,-60.01997404731953,manaus,AM
65070,-2.509029858733884,-44.26459577130818,sao luis,MA
12333,-23.222048447464623,-46.07435084202831,jacarei,SP
4619,-23.618635275960468,-46.68142542708235,sao paulo,SP
90850,-30.061022711062456,-51.22756626089217,porto alegre,RS
75400,-16.378768892140403,-49.49511935648456,inhumas,GO
87020,-23.41713819178952,-51.939548179618086,maringa,PR
19273,-22.58249355752196,-53.05289393532493,rosana,SP
7152,-23.40716326672053,-46.471911401610015,guarulhos,SP
13344,-23.10487104225104,-47.21355432153472,indaiatuba,SP
78500,-10.807521745709389,-55.4619601444402,colider,MT
18043,-23.50328037258334,-47.4695477733282,sorocaba,SP
4455,-23.678985771856432,-46.678985470858095,sao paulo,SP
77700,-8.84686927430267,-48.50559382290798,guarai,TO
81570,-25.483254296699155,-49.2273347529863,curitiba,PR
90850,-30.07263321397665,-51.232087361648055,porto alegre,RS
55525,-8.470197508755664,-35.54063936840013,cortes,PE
5128,-23.491468550926207,-46.74074776048812,sao paulo,SP
15880,-20.9653999881857,-49.03305642241256,tabapuã,SP
9551,-23.626142758814687,-46.554516550233735,sao caetano do sul,SP
39680,-17.70032300292897,-42.52102218091852,capelinha,MG
30411,-19.919590188441425,-43.96358550207746,belo horizonte,MG
4816,-23.704295489872443,-46.68570521732353,sao paulo,SP
83823,-25.653311371705204,-49.31122867969967,fazenda rio grande,PR
8625,-23.64461329061013,-46.31990947640148,suzano,SP
87114,-23.44308223034021,-51.86255007839022,sarandi,PR
90020,-30.0298352494748,-51.2285803050728,porto alegre,RS
86708,-23.41408256511189,-51.44055946684064,arapongas,PR
75555,-17.739166091371082,-49.80794854632824,vicentinópolis,GO
9840,-23.738211,-46.58188274999999,sao bernardo do campo,SP
19200,-22.271916220981577,-51.49310949290812,pirapozinho,SP
1008,-23.546146499999995,-46.6356105,sao paulo,SP
95680,-29.36169586967674,-50.812985092984846,canela,RS
39401,-16.717504047687754,-43.88344630430596,montes claros,MG
44380,-12.664198979390676,-39.10129217386181,cruz das almas,BA
1512,-23.553907271163933,-46.63020176741302,sao paulo,SP
64468,-5.846246889524823,-42.58037075008656,olho d'água do piauí,PI
46960,-12.562085607331117,-41.39148574391158,lencois,BA
38742,-18.938119898152813,-47.00675773246008,patrocínio,MG
8260,-23.57090931531151,-46.4279956630623,sao paulo,SP
15900,-21.407881418730355,-48.49842789640479,taquaritinga,SP
60711,-3.792994267870922,-38.5698332238914,fortaleza,CE
31744,-19.823241992845286,-43.95104654781435,belo horizonte,MG
37470,-22.12112050390388,-45.0436787617348,sao lourenco,MG
13484,-22.55683363835193,-47.41008713794791,limeira,SP
59343,-6.587852864401122,-36.774449247245954,jardim do serido,RN
84500,-25.468577999999997,-50.61851775,irati,PR
12297,-23.087870465722208,-45.688812899388296,cacapava,SP
6712,-23.60116631662494,-46.850806617693664,cotia,SP
28613,-22.28510981115413,-42.53341584484389,nova friburgo,RJ
9810,-23.72227051933147,-46.55657280391253,sao bernardo do campo,SP
41710,-12.975120575913184,-38.43182080252753,salvador,BA
26574,-22.77698149400046,-43.401233770785225,mesquita,RJ
74635,-16.660213156799998,-49.2355854792,goiania,GO
35368,-20.48044161483288,-42.48267625424161,sericita,MG
74275,-16.711616999999947,-49.281415999999965,goiania,GO
35901,-19.66278486130061,-43.23130816185739,itabira,MG
93022,-29.79055005074285,-51.15246889981187,são leopoldo,RS
7135,-23.427940945322877,-46.52853802914191,guarulhos,SP
9721,-23.720729214820093,-46.54681654936748,são bernardo do campo,SP
57035,-9.66017276149504,-35.70309332828782,maceio,AL
27542,-22.46572870191586,-44.44670233859435,resende,RJ
65735,-4.7302488514730845,-44.32689190471922,capinzal do norte,MA
85780,-25.439645999999943,-53.41863949999996,boa vista da aparecida,PR
70077,-15.79076666296478,-47.8844391881036,brasilia,DF
11460,-23.947276447744944,-46.292301926714416,guarujá,SP
68515,-6.077293175008019,-49.91370890789894,parauapebas,PA
37120,-21.55151201966301,-45.73138596067395,paraguacu,MG
7024,-23.468936836574045,-46.54548083831626,guarulhos,SP
89110,-26.928993042180704,-48.96214241285308,gaspar,SC
4649,-23.656235029141897,-46.67506312101102,sao paulo,SP
12914,-22.968568699184654,-46.53880760163069,bragança paulista,SP
75960,-17.39393464946252,-50.3719616827567,acreuna,GO
89819,-26.981354045514674,-52.59374448121119,cordilheira alta,SC
8597,-23.457350820500192,-46.3278076162459,itaquaquecetuba,SP
17690,-21.91395104664956,-50.72342026392641,bastos,SP
22795,-23.02666275327476,-43.489726166801326,rio de janeiro,RJ
9850,-23.725226159573022,-46.57426865823874,sao bernardo do campo,SP
13484,-22.54900373244275,-47.41015593228112,limeira,SP
6160,-23.55771136219458,-46.81220661555086,osasco,SP
6528,-23.40619666250217,-46.89974433429517,santana de parnaiba,SP
37350,-22.02294909388594,-44.31611150697357,liberdade,MG
6712,-23.618573842633715,-46.84794661449015,cotia,SP
17980,-21.35923761993448,-51.86212911800848,panorama,SP
35420,-20.36343854593456,-43.41392544240867,mariana,MG
66040,-1.4564705087998835,-48.47786966472387,belem,PA
41613,-12.95780165962436,-38.395063974245375,salvador,BA
87600,-23.180849342947877,-52.21110562424085,nova esperanca,PR
35600,-19.735635207324307,-45.25436806851692,bom despacho,MG
95800,-29.559197999999945,-52.198725499999966,venancio aires,RS
86930,-23.99118050060768,-51.82495797589137,sao joao do ivai,PR
39888,-19.76161013169393,-43.84992224558569,nova santa luzia,MG
1209,-23.54222353150783,-46.6437369240868,sao paulo,SP
8331,-23.61075876242137,-46.46783176103639,sao paulo,SP
7042,-23.49403468220902,-46.55760371787179,guarulhos,SP
28300,-21.21413092373432,-41.87525060019278,itaperuna,RJ
22250,-22.940383086588994,-43.17585053220033,rio de janeiro,RJ
89204,-26.290223999999995,-48.85540115612552,joinville,SC
68501,-5.385076469973405,-49.1338901644296,maraba,PA
22050,-22.972595929511165,-43.187969651941934,rio de janeiro,RJ
32340,-19.939800746050462,-44.05464823098475,contagem,MG
95054,-29.15882462200629,-51.151797397886135,caxias do sul,RS
6501,-23.44566247418784,-46.91410297418785,santana de parnaiba,SP
13504,-22.39024932667779,-47.58157713962134,rio claro,SP
48604,-9.377114490765065,-38.242861898536965,paulo afonso,BA
2411,-23.478379166801343,-46.62332894685209,sao paulo,SP
8121,-23.49659826810551,-46.38427791978765,sao paulo,SP
13560,-22.027729452680457,-47.88125016180968,são carlos,SP
96030,-31.762068694702496,-52.3622016994057,pelotas,RS
19820,-22.74499983258409,-50.57605950090197,taruma,SP
31995,-19.844268880691377,-43.89260340013278,belo horizonte,MG
21620,-22.83763352207277,-43.398144670552256,rio de janeiro,RJ
6223,-23.518645439222237,-46.77830063687657,osasco,SP
36030,-21.782864442225897,-43.35845681740081,juiz de fora,MG
17602,-21.93377743604403,-50.5021948198828,tupa,SP
81030,-25.4942082717122,-49.277832741473766,curitiba,PR
23580,-22.91298714795141,-43.62898544080624,rio de janeiro,RJ
66093,-1.4369902270470558,-48.45077867375491,belem,PA
4509,-23.58998053926945,-46.67059706148647,sao paulo,SP
35146,-19.3366707822748,-42.15468038504228,sao joao do oriente,MG
14760,-21.000315120607212,-48.32602210118999,ibitiuva,SP
36047,-21.72409663113857,-43.350469553436376,juiz de fora,MG
88801,-28.675562990996703,-49.36607350110969,criciuma,SC
76803,-8.75226114637724,-63.88919068916569,porto velho,RO
13058,-22.950289907294163,-47.182224818627695,campinas,SP
73807,-15.54397950561817,-47.327224002656656,formosa,GO
7179,-23.404085999999992,-46.41425100000001,guarulhos,SP
78630,-14.53900161486519,-52.798354173564285,campinapolis,MT
38770,-17.733567305915827,-46.18504693117932,joao pinheiro,MG
4705,-23.620554724104203,-46.69726318789317,são paulo,SP
64380,-5.4508768077155,-42.36596270069368,beneditinos,PI
5836,-23.64401021065844,-46.73718229961335,sao paulo,SP
12245,-23.196901948879614,-45.88624088805384,sao jose dos campos,SP
95650,-29.57643536462873,-50.779150916110126,igrejinha,RS
21820,-22.885667999999995,-43.47083382514858,rio de janeiro,RJ
14065,-21.13490607799065,-47.82719243158865,ribeirao preto,SP
36480,-20.684988985787783,-43.30117119431512,piranga,MG
14080,-21.151368199001663,-47.79806534110452,ribeirao preto,SP
5010,-23.52867401610016,-46.690135077298144,são paulo,SP
18550,-23.288522499478866,-47.68483885039709,boituva,SP
3348,-23.56610975214959,-46.5635386887299,são paulo,SP
4401,-23.661908430604875,-46.66409651804377,sao paulo,SP
11702,-24.019900700453046,-46.44756537760254,praia grande,SP
4835,-23.738798881210684,-46.70308079669916,sao paulo,SP
98700,-28.386324912415688,-53.90043401333672,ijui,RS
22050,-22.970850737434407,-43.18663072981702,rio de janeiro,RJ
96790,-30.29853899957436,-51.30271813955377,barra do ribeiro,RS
96203,-32.08305792122068,-52.15667954764811,rio grande,RS
26540,-22.809207560923863,-43.41307800528385,nilopolis,RJ
22451,-22.977920379393016,-43.23321745366141,rio de janeiro,RJ
39708,-18.16562653817699,-42.76507057723808,frei lagonegro,MG
62800,-4.562762818320151,-37.7699362994969,aracati,CE
28896,-22.510532361266808,-41.9362562767027,rio das ostras,RJ
28990,-22.93164233297283,-42.49648593711425,saquarema,RJ
88502,-27.816169999999943,-50.325999999999965,lages,SC
88790,-28.461633013808058,-48.787570669462816,laguna,SC
6293,-23.516526193549424,-46.763643257209246,osasco,SP
3952,-23.589628107825888,-46.48440395788996,sao paulo,SP
7030,-23.49189491395926,-46.54629394463038,guarulhos,SP
90220,-30.015776639477107,-51.20952814377627,porto alegre,RS
4938,-23.68998199056494,-46.76235574493623,sao paulo,SP
46430,-14.215133736054616,-42.79446095959242,guanambi,BA
23066,-22.883523725517836,-43.63868242241338,rio de janeiro,RJ
44540,-12.778655446285148,-39.170533500132535,conceicao do almeida,BA
18074,-23.44404864316087,-47.48936560326528,sorocaba,SP
60337,-3.703598907963897,-38.56902525108304,fortaleza,CE
9820,-23.742206202896813,-46.56661263295624,sao bernardo do campo,SP
36570,-20.765106955193776,-42.88260763263492,viçosa,MG
15040,-20.800595307461997,-49.42258555541082,são josé do rio preto,SP
17607,-21.91813187040549,-50.52775765883674,tupa,SP
68632,-3.754945241924344,-47.50530113804326,ulianopolis,PA
2270,-23.4745172761556,-46.59145874257028,sao paulo,SP
11704,-24.02139493144441,-46.47007357868313,praia grande,SP
38440,-18.657651727203227,-48.188176217778725,araguari,MG
51030,-8.141291999999993,-34.90570349999999,recife,PE
50860,-8.089702866963549,-34.9295932556466,recife,PE
7023,-23.477439993594697,-46.54168013488947,guarulhos,SP
4240,-23.62066479739165,-46.58868171288014,sao paulo,SP
15385,-20.418242322782643,-51.33611190354326,ilha solteira,SP
9691,-23.67028468997064,-46.587208254227065,são bernardo do campo,SP
14085,-21.16413050291419,-47.80018336372555,ribeirao preto,SP
31170,-19.88659370358929,-43.92747846168283,belo horizonte,MG
24417,-22.83876217344809,-43.03555066290885,sao goncalo,RJ
20510,-22.9296408259853,-43.24298360090015,rio de janeiro,RJ
85615,-26.15404498699904,-53.024526902009256,marmeleiro,PR
74355,-16.77847360057412,-49.35860891028312,goiania,GO
25936,-22.60174879799996,-43.189773996999975,mage,RJ
13630,-22.0066352558606,-47.4299833227324,pirassununga,SP
22451,-22.984707929222715,-43.2382507354725,rio de janeiro,RJ
35661,-19.872877499999998,-44.6010165,para de minas,MG
69907,-10.008001884996188,-67.78394886520097,rio branco,AC
36700,-21.529689038045014,-42.64781496052261,leopoldina,MG
24020,-22.894668396979416,-43.12275842803415,niteroi,RJ
81050,-25.49267136537089,-49.30145294614836,curitiba,PR
6190,-23.529749627243437,-46.79247631418431,osasco,SP
13304,-23.27752003774025,-47.27771611919334,itu,SP
91330,-30.035284732991,-51.174991797247415,porto alegre,RS
5872,-23.681728152922886,-46.77598004801201,sao paulo,SP
33105,-19.786161410608717,-43.92595747234642,santa luzia,MG
37701,-21.78222612928839,-46.55356306038307,poços de caldas,MG
4025,-23.60179920483004,-46.64688159103239,sao paulo,SP
78613,-16.490901842626457,-52.69754129521949,ribeiraozinho,MT
39508,-15.348722908383134,-43.6653353198355,jaiba,MG
48730,-11.560075138656186,-39.29226890698408,conceicao do coite,BA
60015,-3.727524709129218,-38.53811824646544,fortaleza,CE
64045,-5.082128297289175,-42.77687630084368,teresina,PI
40100,-12.994631050153002,-38.515531126299685,salvador,BA
8275,-23.57314036471389,-46.47676112196235,sao paulo,SP
22030,-22.963099064948917,-43.181565558428034,rio de janeiro,RJ
22715,-22.92705712461769,-43.38388067583237,rio de janeiro,RJ
44350,-12.597775871728285,-39.04233830444712,governador mangabeira,BA
5735,-23.6307049451332,-46.74792008392218,sao paulo,SP
2020,-23.497315658895488,-46.63205056549717,sao paulo,SP
89010,-26.931950843413187,-49.06595403964228,blumenau,SC
1448,-23.58113513183105,-46.6831096655606,são paulo,SP
86039,-23.31737094754457,-51.14400090233117,londrina,PR
35702,-19.48848233220519,-44.27805380435501,sete lagoas,MG
13140,-22.766662103964123,-47.15725636332195,paulinia,SP
78140,-15.646110806749054,-56.15039582255632,varzea grande,MT
36507,-21.117664020290967,-42.95382616770659,uba,MG
45315,-12.865525809216283,-39.862932527227,milagres,BA
3073,-23.531134903687484,-46.555388838046085,sao paulo,SP
78720,-16.438765065497176,-54.61832775327476,rondonópolis,MT
38840,-19.002080059519475,-46.308979906524506,carmo do paranaiba,MG
18430,-24.219244479060933,-48.765063548119855,ribeirao branco,SP
28230,-21.51875410835008,-41.07504986794566,sao francisco de itabapoana,RJ
17800,-21.68912435980784,-51.07574371795942,adamantina,SP
72110,-15.828782549946895,-48.04203414659029,taguatinga,DF
13606,-22.358781963644734,-47.331490018177625,araras,SP
9270,-23.636330255900496,-46.49037985152052,santo andre,SP
5056,-23.534358318099496,-46.7046611723762,sao paulo,SP
23900,-23.004765011197904,-44.31994799346788,angra dos reis,RJ
13490,-22.48431935512056,-47.47349451708912,cordeiropolis,SP
95900,-29.441015893454967,-52.02491894049527,lajeado,RS
37440,-21.979808873636827,-44.93422437449055,caxambu,MG
12980,-22.932237242505384,-46.27089624836296,joanopolis,SP
9920,-23.683234734139088,-46.62619990757543,diadema,SP
24415,-22.838698288788663,-43.07567914439432,sao goncalo,RJ
32042,-19.90157010961028,-44.07488562514976,contagem,MG
20911,-22.89553462893842,-43.240898226369424,rio de janeiro,RJ
25510,-22.79112487324996,-43.373896577959286,sao joao de meriti,RJ
13180,-22.848779871988796,-47.16426106635361,sumare,SP
45200,-13.861340983358913,-40.07669245634504,jequie,BA
59082,-5.860017292170677,-35.203060773271105,natal,RN
9616,-23.663243995845058,-46.56196500929083,sao bernardo do campo,SP
5850,-23.659170034970288,-46.75691730904842,sao paulo,SP
79004,-20.4797890885509,-54.61352822952855,campo grande,MS
3979,-23.61794229225576,-46.50887064002537,sao paulo,SP
48970,-10.457515214432863,-40.18305304048535,senhor do bonfim,BA
1509,-23.567590529834398,-46.63545150721337,são paulo,SP
8295,-23.551074376911508,-46.456465373997325,sao paulo,SP
5521,-23.57272403815419,-46.70459702861563,sao paulo,SP
25680,-22.499091921296664,-43.18030624017528,petropolis,RJ
1046,-23.54608112703553,-46.64482029837157,sao paulo,SP
27251,-22.509516425760257,-44.079411918950925,volta redonda,RJ
32280,-19.94776121045732,-44.05008434474645,contagem,MG
31620,-19.798673018321853,-43.970167712331865,belo horizonte,MG
35700,-19.448011590916405,-44.26017696676953,sete lagoas,MG
5525,-23.5937977256786,-46.7637873659424,sao paulo,SP
14030,-21.17930206189049,-47.82441101817762,ribeirao preto,SP
35300,-19.788551117477105,-42.12864735558744,caratinga,MG
70660,-15.808319999999997,-47.93806124999999,brasilia,DF
13073,-22.87972509299647,-47.066165004802855,campinas,SP
5465,-23.55396309463907,-46.715155726210334,sao paulo,SP
97970,-28.130785066325195,-55.022110165157336,roque gonzales,RS
4018,-23.584873725229382,-46.64218465390382,sao paulo,SP
9971,-23.724659043020367,-46.62046331072185,diadema,SP
30380,-19.953092084655754,-43.9513070291419,belo horizonte,MG
24710,-22.824995156724235,-43.00430216936494,sao goncalo,RJ
71915,-15.839090999999996,-48.02508224999998,brasilia,DF
45810,-16.421312525605163,-39.08381545240617,porto seguro,BA
18230,-23.88442859846373,-47.98740225093361,sao miguel arcanjo,SP
3973,-23.619109588954924,-46.48197109631251,sao paulo,SP
8246,-23.53498107799065,-46.436275021784304,sao paulo,SP
97043,-29.676095769634724,-53.825063139736905,santa maria,RS
4272,-23.60913161896049,-46.61258745259877,sao paulo,SP
15200,-21.052706120308837,-49.69078545844912,jose bonifacio,SP
4678,-23.666669225085155,-46.6783282821282,sao paulo,SP
14020,-21.19932,-47.80814399999999,ribeirão preto,SP
37470,-22.12046415998685,-45.04808286532776,sao lourenco,MG
6266,-23.49014534000798,-46.78941926380634,osasco,SP
22780,-22.963417567463896,-43.40378798036975,rio de janeiro,RJ
95900,-29.45381802821592,-51.9704571637324,lajeado,RS
4079,-23.60655728143572,-46.66136756203471,são paulo,SP
25215,-22.67622176524189,-43.26837685906155,duque de caxias,RJ
26700,-22.51382427107051,-43.73711560444244,mendes,RJ
5775,-23.633140054677128,-46.75116203372952,sao paulo,SP
17280,-22.347733709057643,-48.7912502138764,pederneiras,SP
1402,-23.567787000000003,-46.649099250000006,sao paulo,SP
67200,-1.3686265971439675,-48.33719314106997,marituba,PA
75261,-16.689655330999926,-49.10640191999994,senador canedo,GO
9890,-23.697671486582884,-46.56970168734492,sao bernardo do campo,SP
20551,-22.91390211019098,-43.24531667124475,rio de janeiro,RJ
99840,-27.950277628922684,-51.8120109192818,sananduva,RS
35604,-19.846286457387663,-45.411504076137966,moema,MG
36071,-21.77154408604073,-43.32395704163539,juiz de fora,MG
96015,-31.75542867499565,-52.335471829996,pelotas,RS
13150,-22.64944802382808,-47.18419132568267,cosmopolis,SP
1322,-23.56363165084541,-46.644418560649726,sao paulo,SP
26220,-22.76022763267358,-43.4320829288956,nova iguacu,RJ
3568,-23.54173828642737,-46.48704602775691,sao paulo,SP
41760,-12.993092528449408,-38.446055314588335,salvador,BA
70390,-15.821622518394545,-47.92456984427245,brasilia,DF
6900,-23.8396863194519,-46.8169263707372,embu-guacu,SP
35570,-20.46038059728704,-45.426240777207504,formiga,MG
22621,-23.00891945850884,-43.30880253038264,rio de janeiro,RJ
79021,-20.455575829762235,-54.58486602830843,campo grande,MS
22041,-22.968187858445415,-43.18878906535294,rio de janeiro,RJ
20745,-22.90046938825116,-43.30780385025111,rio de janeiro,RJ
74280,-16.71613813775601,-49.27434097170252,goiania,GO
1457,-23.573071748831367,-46.69253938758733,sao paulo,SP
97502,-29.756159375245414,-57.0719835,uruguaiana,RS
18360,-24.627278999999945,-48.82939099999996,itaóca,SP
12310,-23.293287995556604,-45.94084609740903,jacarei,SP
74815,-16.712006739048626,-49.23975723904863,goiania,GO
85851,-25.5346522976705,-54.58707354694472,foz do iguacu,PR
72115,-15.830195643188803,-48.05945068156205,brasilia,DF
38444,-18.625923316845185,-48.19610638713796,araguari,MG
62670,-3.611476876433076,-38.96484042804495,sao goncalo do amarante,CE
3251,-23.60993411518264,-46.536372,sao paulo,SP
39885,-17.277521340163478,-41.0889441139695,crisolita,MG
4531,-23.58229365177204,-46.68038832224399,sao paulo,SP
6654,-23.540438862748115,-46.91921349267817,itapevi,SP
90050,-30.03940961284127,-51.220146327002624,porto alegre,RS
3080,-23.532087142939552,-46.57955243256958,sao paulo,SP
28073,-21.72118862186204,-41.31796005355379,campos dos goytacazes,RJ
88010,-27.59279546710718,-48.556392244792,florianopolis,SC
77022,-10.22547089788132,-48.321635970606565,palmas,TO
23068,-22.88624053205609,-43.59695144269713,rio de janeiro,RJ
88160,-27.49887407755802,-48.65103791681465,biguacu,SC
92500,-30.113427792948247,-51.32761434124875,guaíba,RS
16980,-21.03323526858501,-51.21474212392921,guaracai,SP
91793,-30.147388921630323,-51.15196478535184,porto alegre,RS
78575,-11.268351947989428,-57.51610966388792,juara,MT
18017,-23.495197180679803,-47.41716911212423,sorocaba,SP
14403,-20.546505617104263,-47.39088316327306,franca,SP
7175,-23.409296340267783,-46.403551194558254,guarulhos,SP
4119,-23.591615521784316,-46.63491375437127,sao paulo,SP
29930,-18.71826515143292,-39.85247082836309,sao mateus,ES
8561,-23.532044354146244,-46.3400075224768,poa,SP
54330,-8.165915072763639,-34.928385999478,jaboatao dos guararapes,PE
4538,-23.58702735607949,-46.68053994546709,sao paulo,SP
4146,-23.6152724568354,-46.62590110796926,sao paulo,SP
12228,-23.24732095115125,-45.8293987507646,sao jose dos campos,SP
13846,-22.327938800295325,-46.94039091371697,mogi-guacu,SP
4313,-23.633885293929197,-46.637593994719865,sao paulo,SP
5143,-23.495228067170604,-46.72269748098564,sao paulo,SP
78068,-15.634102271089583,-56.03628783128335,cuiaba,MT
55870,-7.512288566627572,-35.317443183778465,timbauba,PE
5402,-23.5708425,-46.69058249999999,sao paulo,SP
69098,-3.046576500000003,-59.9723235,manaus,AM
13077,-22.87597005467713,-47.0434723477696,campinas,SP
6140,-23.58227439133824,-46.8001941300134,osasco,SP
1453,-23.58495212738765,-46.686606893704166,sao paulo,SP
9971,-23.724759194846733,-46.61943486969814,diadema,SP
17034,-22.30574948932419,-49.02164060897887,bauru,SP
18035,-23.497773521929048,-47.46609581060057,sorocaba,SP
1544,-23.576913503462453,-46.62444149999999,sao paulo,SP
5027,-23.5344054857175,-46.69368667831386,sao paulo,SP
14960,-21.479354194461784,-49.21979469370974,novo horizonte,SP
27288,-22.46617667718505,-44.10187145614073,volta redonda,RJ
78573,-12.732509611550425,-56.513457406114775,tapurah,MT
3720,-23.500952077990647,-46.53004504731954,sao paulo,SP
86990,-23.478449958651048,-51.798013635631264,marialva,PR
36515,-21.15239246172516,-42.79584743526864,guidoval,MG
35500,-20.139820017452564,-44.89214512575678,divinopolis,MG
4728,-23.63800472589499,-46.71195931012999,são paulo,SP
3516,-23.54450380099833,-46.52603791993189,sao paulo,SP
2068,-23.51210638856828,-46.61089743282939,sao paulo,SP
87910,-23.005682375277445,-53.19648426558904,santa isabel do ivai,PR
21341,-22.87698779877663,-43.354461304893455,rio de janeiro,RJ
83650,-25.58439336525475,-49.62991227161698,balsa nova,PR
88340,-27.010334235217364,-48.6584326146966,camboriu,SC
99250,-28.713791667087182,-51.93790120288585,serafina correa,RS
88140,-27.68071593218504,-48.75088841234603,santo amaro da imperatriz,SC
44190,-12.42761141018596,-39.25233717814157,santo estevao,BA
30310,-19.94188936751341,-43.93238063851372,belo horizonte,MG
9060,-23.663485069103857,-46.54969520053088,santo andre,SP
21555,-22.851623366928195,-43.36395513252354,rio de janeiro,RJ
98900,-27.868105189929164,-54.46073635922328,santa rosa,RS
40435,-12.924635447688798,-38.50137873772285,salvador,BA
96203,-32.07383966558913,-52.15448323680002,rio grande,RS
88135,-27.67296998525947,-48.67976293485132,palhoca,SC
11040,-23.97229269109582,-46.31237978504239,santos,SP
52020,-8.046293951151258,-34.89563687399731,recife,PE
25963,-22.41906463184266,-42.97567562619725,teresopolis,RJ
12090,-23.039834224994507,-45.55587186799295,taubaté,SP
3726,-23.499178894328484,-46.51355684951051,sao paulo,SP
17512,-22.152447271203187,-49.94988372582802,marília,SP
19064,-22.144971592713432,-51.4480347261916,presidente prudente,SP
5016,-23.54187934194123,-46.67614143545513,sao paulo,SP
65415,-4.129240860492978,-44.138968665082736,coroata,MA
2956,-23.466422546482814,-46.72280826810551,sao paulo,SP
39510,-14.924872977049963,-42.81304351097404,espinosa,MG
37800,-21.308512610046748,-46.7153907171793,guaxupé,MG
6422,-23.51712757017782,-46.90208332033951,barueri,SP
57314,-9.748434275324673,-36.6465083114968,arapiraca,AL
24802,-22.71359896822023,-42.82273140107553,itaborai,RJ
82015,-25.41612650291418,-49.33091060975829,curitiba,PR
24715,-22.79797583041646,-42.99085434159071,sao goncalo,RJ
9450,-23.747998704137554,-46.3959785224768,rio grande da serra,SP
95080,-29.17140530657492,-51.18380925001246,caxias do sul,RS
80310,-25.46116749096897,-49.308582090484144,curitiba,PR
55040,-8.301683241340463,-36.02673627526858,caruaru,PE
5446,-23.555053215650084,-46.70007390714994,sao paulo,SP
13790,-21.71132401114295,-46.8219897324574,sao sebastiao da grama,SP
30180,-19.92290419681005,-43.954932050857686,belo horizonte,MG
81320,-25.47727317456296,-49.32436710519932,curitiba,PR
14015,-21.18845366887881,-47.80100484748114,ribeirao preto,SP
87900,-22.92663228389741,-53.12762200421045,loanda,PR
9320,-23.65505293920603,-46.44193067387047,maua,SP
8773,-23.512838198922942,-46.20413281790152,mogi das cruzes,SP
29620,-19.923878999999943,-40.86198349999995,itarana,ES
42700,-12.884510661117186,-38.291036208148256,lauro de freitas,BA
21910,-22.79869794087947,-43.18358115124944,rio de janeiro,RJ
90010,-30.036168366639725,-51.23371228697564,porto alegre,RS
37400,-21.83397740188365,-45.40817767909154,campanha,MG
49500,-10.688193513567953,-37.42940801494518,itabaiana,SE
13100,-22.907024099955866,-47.04193153256941,campinas,SP
2737,-23.48694461004675,-46.68993310130418,sao paulo,SP
8532,-23.53910242683165,-46.37562162082903,ferraz de vasconcelos,SP
5724,-23.638307003365984,-46.73673320995803,sao paulo,SP
78390,-15.072174000000004,-57.17800428227037,barra do bugres,MT
3220,-23.60755425827055,-46.52306020778981,sao paulo,SP
4203,-23.597749366579777,-46.60554905526595,sao paulo,SP
75910,-17.76528565333819,-50.90328334258313,rio verde,GO
98600,-27.458949577043985,-53.91895385004752,tres passos,RS
12321,-23.302552064590703,-45.9794900391086,jacarei,SP
13510,-22.45258193718965,-47.539877555630994,santa gertrudes,SP
38430,-18.587586888782223,-48.69884249999999,tupaciguara,MG
57035,-9.659429742413774,-35.70308732861678,maceió,AL
57030,-9.663946271163937,-35.71542203274857,maceio,AL
23955,-23.008050463818805,-44.52758950277503,angra dos reis,RJ
27510,-22.464261701915856,-44.45307176533555,resende,RJ
3132,-23.58226946655892,-46.58139960782504,sao paulo,SP
8255,-23.54413092423105,-46.43494034471119,são paulo,SP
98960,-27.833056430406785,-54.6519650907125,santo cristo,RS
4707,-23.626437590339908,-46.6896866014484,sao paulo,SP
25660,-22.51156266684792,-43.202863731035045,petropolis,RJ
13720,-21.60601856165549,-46.89689440174986,são josé do rio pardo,SP
18560,-23.35122727336333,-47.696126386900005,ipero,SP
60175,-3.723910361213112,-38.4805636432295,fortaleza,CE
24220,-22.90774899140166,-43.099961756737216,niteroi,RJ
11990,-25.006588187666107,-47.932931646883176,cananéia,SP
40296,-12.993668182353248,-38.48324652429447,salvador,BA
95600,-29.64787738386507,-50.77983542353856,taquara,RS
4802,-23.70889997002137,-46.70362994838128,são paulo,SP
5415,-23.563383233971948,-46.6823138782965,sao paulo,SP
20230,-22.910847223700166,-43.193637513734224,rio de janeiro,RJ
7020,-23.47279815015293,-46.53365964723872,guarulhos,SP
1127,-23.526573537884477,-46.63890686288881,sao paulo,SP
14403,-20.54065590461961,-47.392490750829154,franca,SP
86067,-23.292275260055437,-51.22279967583238,londrina,PR
76680,-15.557600999999943,-49.945044499999966,itapuranga,GO
36200,-21.226312797504903,-43.77176789907755,barbacena,MG
9572,-23.63944458090484,-46.56143146335628,sao caetano do sul,SP
85340,-25.526603999999946,-52.51048999999996,rio bonito do iguaçu,PR
5549,-23.59684805190716,-46.76454766403137,sao paulo,SP
76480,-13.722855964946016,-49.01465248998527,santa tereza de goias,GO
8111,-23.491985039413688,-46.37439311671184,sao paulo,SP
97542,-29.786540379359504,-55.78973863447332,alegrete,RS
9380,-23.629563000000005,-46.4789099639332,maua,SP
8737,-23.54988036230406,-46.201772380127714,mogi das cruzes,SP
1321,-23.56554005912053,-46.642700976398,sao paulo,SP
13063,-22.889144346384622,-47.10856162046276,campinas,SP
18103,-23.42227799951229,-47.421000587890525,sorocaba,SP
18200,-23.58929283584334,-48.0446452589876,itapetininga,SP
50710,-8.04879,-34.90834724999999,recife,PE
17670,-22.070716315599288,-50.30154710704763,quintana,SP
13730,-21.471667342225235,-47.00702921188599,mococa,SP
68725,-1.133049709951827,-47.62601782456934,igarape-acu,PA
8750,-23.548265760728608,-46.250318930218434,mogi das cruzes,SP
11705,-24.03694589370416,-46.51350924937963,praia grande,SP
15350,-20.679810126416392,-50.55356538492815,auriflama,SP
74970,-16.824697382870383,-49.29505689370368,aparecida de goiania,GO
12071,-23.01184715114152,-45.525153438926885,taubate,SP
59082,-5.8638979170176855,-35.20022817040801,natal,RN
11065,-23.96582262392521,-46.34785375145708,santos,SP
37701,-21.79361831542804,-46.58829056051574,pocos de caldas,MG
13844,-22.395891392116415,-46.94691043764621,mogi-guacu,SP
13940,-22.47746783177002,-46.63139674723284,águas de lindóia,SP
94460,-30.114109861258587,-51.07733018429709,viamao,RS
84052,-25.098022690629595,-50.19453687895693,ponta grossa,PR
85853,-25.59852308741215,-54.504308341490834,foz do iguacu,PR
30140,-19.932897614490138,-43.92523981779098,belo horizonte,MG
2525,-23.50618684041201,-46.647518951151255,sao paulo,SP
93490,-29.74710641052152,-51.06763217780989,novo hamburgo,RS
76850,-10.792626878761585,-65.34532829303575,guajara-mirim,RO
22793,-23.00165008222954,-43.39280279696326,rio de janeiro,RJ
7942,-23.272400316790407,-46.73466850327609,francisco morato,SP
2841,-23.48139514071786,-46.68523310560335,sao paulo,SP
20950,-22.902888518754544,-43.24869000000001,rio de janeiro,RJ
60711,-3.805763888424045,-38.57230148320736,fortaleza,CE
86140,-22.851214803479717,-51.0257129576678,primeiro de maio,PR
3572,-23.57617001249348,-46.49086130529751,sao paulo,SP
97572,-30.86642170643905,-55.54323871280383,santana do livramento,RS
15704,-20.27389786810064,-50.55393916635643,jales,SP
1321,-23.56300106411219,-46.64208086026307,são paulo,SP
14030,-21.188357842633717,-47.84224692838599,ribeirao preto,SP
41340,-12.894426866324888,-38.4117354835527,salvador,BA
27213,-22.50581329753588,-44.089561293784975,volta redonda,RJ
89610,-27.170917878037905,-51.49111368457555,herval d'oeste,SC
9780,-23.71432934783688,-46.53631088300341,sao bernardo do campo,SP
93180,-29.693522951708697,-51.23133410175193,portao,RS
12335,-23.266126749927885,-45.96497492922271,jacarei,SP
1308,-23.555879696635746,-46.65079515528881,sao paulo,SP
85802,-24.969879817098494,-53.46650386842874,cascavel,PR
13568,-22.01604664325022,-47.85518755935154,são carlos,SP
31842,-19.9194380044434,-44.02201953649949,belo horizonte,MG
11020,-23.97192119709508,-46.30243332367647,santos,SP
20031,-22.91126344463037,-43.17436061310515,rio de janeiro,RJ
36110,-21.714968999999947,-43.21972249999996,chácara,MG
5619,-23.58971505467713,-46.726852515407664,sao paulo,SP
35323,-19.595636814019517,-41.96882675392934,imbe de minas,MG
63010,-7.201398657174503,-39.316965124143685,juazeiro do norte,CE
76420,-14.472366803610123,-48.46565898194933,niquelandia,GO
21760,-22.89069871469133,-43.42226759947889,rio de janeiro,RJ
45077,-14.84784522528785,-40.86896623806122,vitoria da conquista,BA
5688,-23.613969071037083,-46.706569251168645,sao paulo,SP
70235,-15.812658217593002,-47.89365639297883,brasilia,DF
75103,-16.348655359920294,-48.90844383946463,anapolis,GO
70297,-15.834294225508613,-47.91571369685808,brasilia,DF
39260,-17.59696397424831,-44.74355742310264,varzea da palma,MG
37970,-20.74307163654729,-46.86073659497036,pratapolis,MG
11070,-23.963716372468117,-46.34963839148247,santos,SP
22611,-23.00857544000896,-43.301133696199,rio de janeiro,RJ
22230,-22.9378801537596,-43.17779159339832,rio de janeiro,RJ
60543,-3.7950720398358753,-38.60896051821556,fortaleza,CE
2739,-23.484767007501823,-46.68846896710719,sao paulo,SP
5889,-23.671647413810508,-46.789491867361946,sao paulo,SP
39600,-16.840846921522274,-42.070063997056494,aracuai,MG
28300,-21.196564357340783,-41.91219364960957,itaperuna,RJ
35501,-20.17764783278901,-44.91348125815677,divinopolis,MG
11461,-23.950350292400252,-46.28728252298032,guaruja,SP
3572,-23.57568970191586,-46.49235428864907,sao paulo,SP
11750,-24.30950910120908,-46.98292246289569,peruibe,SP
3513,-23.533151950603,-46.52395517943906,sao paulo,SP
5815,-23.661545827396107,-46.737339129792105,sao paulo,SP
6856,-23.69028149999999,-46.80095174999999,itapecerica da serra,SP
75690,-17.750191490437352,-48.61812741865743,caldas novas,GO
35430,-20.408007967039545,-42.89853652610985,ponte nova,MG
3067,-23.53649366472388,-46.573621984996365,sao paulo,SP
74463,-16.652594531030992,-49.3398981123871,goiania,GO
13332,-23.048385918217605,-47.21068138796778,indaiatuba,SP
15410,-20.87977825979756,-48.80701376576481,cajobi,SP
21931,-22.81138283928684,-43.19311203551853,rio de janeiro,RJ
20720,-22.90632847960066,-43.292158994171615,rio de janeiro,RJ
29148,-20.33000568443525,-40.40745788544461,cariacica,ES
80730,-25.43296762975359,-49.29732997960068,curitiba,PR
4616,-23.6196198440187,-46.67331857216226,sao paulo,SP
11606,-23.783429210658426,-45.400073636966944,sao sebastiao,SP
4206,-23.5976958753823,-46.60315129239997,sao paulo,SP
8775,-23.494700312089893,-46.17240552617773,mogi das cruzes,SP
8320,-23.633116742166266,-46.47226555023372,sao paulo,SP
32900,-20.071311912203623,-44.301562452908925,igarape,MG
23810,-22.867606946877245,-43.76298686252694,itaguaí,RJ
13301,-23.24758205284451,-47.30524394917836,itu,SP
60713,-3.788050075182953,-38.57528229759544,fortaleza,CE
69058,-3.0698485459345606,-60.0222332149576,manaus,AM
24430,-22.83468274457782,-43.08693730674039,são gonçalo,RJ
78200,-16.062968538453102,-57.67622732974687,caceres,MT
30360,-19.96776271412088,-43.94505570635925,belo horizonte,MG
13331,-23.07369812425744,-47.22076379468584,indaiatuba,SP
24431,-22.83124251365882,-43.07925860414061,sao goncalo,RJ
3951,-23.58727855888575,-46.48800732427676,sao paulo,SP
25015,-22.78951973002319,-43.32055580457269,duque de caxias,RJ
1311,-23.57077094477461,-46.64511854899298,sao paulo,SP
9280,-23.64223758702169,-46.51948193311786,santo andre,SP
87501,-23.7636656394771,-53.308895280050734,umuarama,PR
11055,-23.966178705522537,-46.32477183625708,santos,SP
5570,-23.604281474897466,-46.79759177699231,sao paulo,SP
38060,-19.744631486814026,-47.950008689566594,uberaba,MG
18035,-23.505863448237065,-47.45413093352188,sorocaba,SP
39480,-15.490690469068422,-44.360994096185166,januaria,MG
97050,-29.690911351924544,-53.80610860436259,santa maria,RS
3490,-23.555870102132065,-46.51652249811876,sao paulo,SP
11250,-23.85283055759132,-46.13831296433721,bertioga,SP
58051,-7.146846020543565,-34.83855146142303,joao pessoa,PB
69085,-3.062486999999944,-59.94688399999996,manaus,AM
88850,-28.750357842942407,-49.47356288960601,forquilhinha,SC
89086,-26.89297299545668,-49.222759981928064,indaial,SC
36280,-20.90163798532925,-43.82858737858842,carandai,MG
33400,-19.641266581308443,-43.90442555246383,lagoa santa,MG
39765,-18.42632896850871,-42.86827887576825,paulistas,MG
5171,-23.47479138328816,-46.75174850083672,são paulo,SP
88133,-27.62579758572187,-48.65827895699053,palhoça,SC
85863,-25.531177737890868,-54.57340162374072,foz do iguacu,PR
92325,-29.907774450458763,-51.201584684170925,canoas,RS
12701,-22.57564722093021,-44.95920896142302,cruzeiro,SP
19470,-21.77399881392394,-52.10643168072484,presidente epitacio,SP
12242,-23.20838303151347,-45.91613395561542,sao jose dos campos,SP
39402,-16.73676986955392,-43.85262260450682,montes claros,MG
20230,-22.91388068388245,-43.181545882595664,rio de janeiro,RJ
11035,-23.98569702331352,-46.304128519014334,santos,SP
2307,-23.483606060505508,-46.60792273841536,sao paulo,SP
4083,-23.61182770119292,-46.663293629294174,sao paulo,SP
95800,-29.602320250617645,-52.191603733754114,venancio aires,RS
9351,-23.69274960006342,-46.4469944289629,mauá,SP
13181,-22.84087223397195,-47.18997320621504,sumare,SP
89280,-26.24975022942598,-49.38255025685801,são bento do sul,SC
14140,-21.343225844602088,-47.73076061343805,cravinhos,SP
3152,-23.59206885345376,-46.5805032120434,sao paulo,SP
3726,-23.50117427251595,-46.51452341467071,sao paulo,SP
45480,-13.228184823758374,-39.50315719838939,mutuipe,BA
46900,-12.416817459389982,-41.78121670497803,seabra,BA
4727,-23.63919685029652,-46.71939702367194,sao paulo,SP
20040,-22.90530098167813,-43.17755470814828,rio de janeiro,RJ
86200,-23.254190716693184,-51.05205711081464,ibipora,PR
24435,-22.82485016842726,-43.06835858300942,sao goncalo,RJ
11462,-23.95420975861376,-46.2856440651975,guaruja,SP
13145,-22.750516152374622,-47.17681797224308,paulinia,SP
1333,-23.567769847913844,-46.64680824369547,sao paulo,SP
75805,-17.86388196364554,-51.72976901817724,jataí,GO
12241,-23.230036362196333,-45.92377120038666,sao jose dos campos,SP
2435,-23.479107537884477,-46.6378481626464,sao paulo,SP
12307,-23.29308207654611,-45.95689516123687,jacarei,SP
35960,-19.963091959499238,-43.460929791037486,santa bárbara,MG
76847,-8.799597913295528,-63.79324982777344,extrema,RO
83606,-25.472801726403336,-49.53985159951178,campo largo,PR
1332,-23.56021616625308,-46.65435358728148,sao paulo,SP
76330,-15.73819074758002,-49.3238543513714,jaraguá,GO
6454,-23.497181225731087,-46.84661582637687,barueri,SP
96211,-32.042557935498536,-52.111143739217205,rio grande,RS
13211,-23.19905481852097,-46.91435331828781,jundiai,SP
14091,-21.185484999163275,-47.79032758312656,ribeirao preto,SP
21235,-22.844473795718205,-43.32991124464777,rio de janeiro,RJ
39518,-15.808887664888244,-42.8720982308856,serranopolis de minas,MG
9190,-23.67247985068379,-46.53824445669116,santo andre,SP
18136,-23.56096330427244,-47.14802654049926,sao roque,SP
98750,-28.24014379084608,-53.75618049381392,ajuricaba,RS
24451,-22.823413750693327,-43.00784642095154,são gonçalo,RJ
18606,-22.896404448753465,-48.45041707980479,botucatu,SP
17860,-21.566279565308875,-51.26400190026158,pacaembu,SP
1026,-23.54131233975484,-46.62849025456588,sao paulo,SP
78710,-16.45258608964741,-54.63895865557727,rondonopolis,MT
1029,-23.54130569969415,-46.63285261754857,sao paulo,SP
3451,-23.55808470635926,-46.52041727338564,são paulo,SP
4560,-23.61220394892955,-46.68194360505509,sao paulo,SP
5036,-23.514418215101838,-46.6917955402504,sao paulo,SP
78320,-11.425972499999997,-58.7762685,juína,MT
74823,-16.715038349101082,-49.25128663292063,goiânia,GO
35170,-19.51987832700308,-42.62752097892997,coronel fabriciano,MG
35519,-19.87564836178948,-44.985508264966505,nova serrana,MG
95200,-28.52017428188753,-50.951071380830335,vacaria,RS
55365,-8.742764033348884,-36.62702051211654,capoeiras,PE
6833,-23.65279864071816,-46.84753285314339,embu das artes,SP
18103,-23.412587395781628,-47.40845724785041,sorocaba,SP
5835,-23.64559685068379,-46.74625170177164,sao paulo,SP
30130,-19.93153832139767,-43.93378057605742,belo horizonte,MG
6815,-23.653149505972607,-46.81706915973222,embu das artes,SP
3127,-23.57781537829649,-46.58962128518662,sao paulo,SP
6693,-23.533140837736923,-46.92541981611606,itapevi,SP
5409,-23.56067267277396,-46.673406848462086,sao paulo,SP
6900,-23.851379999999946,-46.84064299999997,embu-guacu,SP
5617,-23.59084364807545,-46.72016956440064,sao paulo,SP
88034,-27.57829182201586,-48.50832936970959,florianopolis,SC
21930,-22.82210903580701,-43.17547738856828,rio de janeiro,RJ
21830,-22.879575586733225,-43.484040785186615,rio de janeiro,RJ
70863,-15.753189944255825,-47.885211,brasilia,DF
18040,-23.49671039632989,-47.474010586184974,sorocaba,SP
67130,-1.3689312341834283,-48.40218873470791,ananindeua,PA
73808,-15.525612499999966,-47.27180740299997,formosa,GO
4015,-23.585731595620015,-46.64025857063306,sao paulo,SP
22071,-22.977794064660447,-43.19117697224306,rio de janeiro,RJ
21940,-22.812675087425703,-43.20566169219233,rio de janeiro,RJ
81240,-25.473152975849757,-49.3401535732588,curitiba,PR
3088,-23.52731184179699,-46.56137431473256,sao paulo,SP
72140,-15.812947642796448,-48.08595538679828,brasilia,DF
95057,-29.14022342215711,-51.13702505351878,caxias do sul,RS
13170,-22.828660470713867,-47.26534994587114,sumare,SP
24030,-22.8873312653738,-43.12078999918501,niteroi,RJ
36504,-21.1155027955324,-42.94111963777258,uba,MG
31710,-19.844571614490143,-43.96020031779099,belo horizonte,MG
41613,-12.95780165962436,-38.395063974245375,salvador,BA
11900,-24.506259621703503,-47.85067403996196,registro,SP
30411,-19.92521656036128,-43.964783460586325,belo horizonte,MG
89898,-26.971453394337747,-53.638815489325495,tunapolis,SC
13211,-23.18016836848353,-46.91557775026318,jundiai,SP
19780,-22.24929227455708,-50.69642079391613,quata,SP
17340,-22.460508046249466,-48.567508782690055,barra bonita,SP
35183,-19.558701660263324,-42.6667329474498,timóteo,MG
36860,-21.13415799755136,-42.20257203794221,patrocínio do muriaé,MG
1415,-23.557744127988823,-46.66321502930168,sao paulo,SP
52011,-8.05065849042071,-34.90024249570083,recife,PE
60510,-3.7546932886490776,-38.58064714432453,fortaleza,CE
96910,-29.342638006932876,-52.97689685341327,segredo,RS
88901,-28.94444787998049,-49.49440755664878,ararangua,SC
4647,-23.649443580904844,-46.67816345337295,sao paulo,SP
79003,-20.46593920154882,-54.60293254446925,campo grande,MS
25976,-22.40626699111929,-42.96147806608996,teresopolis,RJ
35400,-20.386302558976304,-43.489853056898816,ouro preto,MG
31741,-19.843902301434955,-43.93409357384999,belo horizonte,MG
50761,-8.068481015263433,-34.92624565958798,recife,PE
14860,-21.19117140540497,-48.16131775241683,barrinha,SP
57515,-9.46992322362592,-37.45638211536394,senador rui palmeira,AL
6390,-23.537220102467963,-46.85882032050499,carapicuiba,SP
3975,-23.581705512675526,-46.76626437971915,são paulo,SP
79094,-20.513522482659084,-54.66368497403208,campo grande,MS
8021,-23.501890959201333,-46.435761266864766,sao paulo,SP
18130,-23.52988433862058,-47.13675977248263,sao roque,SP
79601,-20.772027,-51.71824575,tres lagoas,MS
7727,-23.372281897090843,-46.67708529978608,caieiras,SP
11430,-23.99834433325758,-46.29099326039937,guaruja,SP
21220,-22.842831257573938,-43.32156516957129,rio de janeiro,RJ
19600,-22.229637866448083,-50.89823891669147,rancharia,SP
89172,-27.257980208506677,-49.93085052938333,pouso redondo,SC
12850,-22.679701131301957,-44.31774992657436,bananal,SP
5207,-23.39940667110051,-46.75281398473654,são paulo,SP
97670,-28.65598281584385,-56.01134975494388,sao borja,RS
53433,-7.911394899297813,-34.84023122585353,paulista,PE
36201,-21.220981771706285,-43.779714763441184,barbacena,MG
16402,-21.6701774685804,-49.7257768279718,lins,SP
14500,-20.33813942215896,-47.78174064322658,ituverava,SP
13567,-22.00431541271851,-47.87539020843673,sao carlos,SP
71250,-15.776556242266905,-48.00254208713626,brasilia,DF
23955,-23.01125856581285,-44.530380912893285,angra dos reis,RJ
23015,-22.906864101015717,-43.53680198222639,rio de janeiro,RJ
4436,-23.671444987506515,-46.67309975422707,sao paulo,SP
64015,-5.0927579490001245,-42.79748379899965,teresina,PI
79841,-22.22450441733332,-54.766342164508615,dourados,MS
17810,-21.79806825744304,-51.18036608425478,mariapolis,SP
4026,-23.596877263113853,-46.64785321870851,sao paulo,SP
2472,-23.475464088810693,-46.654413532748585,sao paulo,SP
20561,-22.921619656413984,-43.26200918344977,rio de janeiro,RJ
9541,-23.620068471002327,-46.57285324854291,sao caetano do sul,SP
37410,-21.69451186378992,-45.25192428192978,tres coracoes,MG
4531,-23.5807497238444,-46.67429543366612,sao paulo,SP
33822,-19.828460234537403,-44.086735107591856,ribeirao das neves,MG
8765,-23.670822309402293,-46.17912045443463,mogi das cruzes,SP
95500,-29.824650446289567,-50.509345001626016,santo antonio da patrulha,RS
82020,-25.402811807429973,-49.32244985481084,curitiba,PR
57440,-9.604761111065375,-37.24849386111683,monteiropolis,AL
74815,-16.708013968510546,-49.24181812467197,goiania,GO
57500,-9.372936123652645,-37.24261699815207,santana do ipanema,AL
14022,-21.226395814200256,-47.78501779742152,ribeirao preto,SP
85884,-25.300514635916603,-54.08925327400307,medianeira,PR
86067,-23.294399569086337,-51.22364777386985,londrina,PR
1138,-23.52468532944775,-46.65537406549718,sao paulo,SP
3609,-23.51554218427429,-46.54468391093711,sao paulo,SP
91360,-30.02139443104038,-51.15676913336026,porto alegre,RS
13482,-22.588538249235388,-47.43708355536961,limeira,SP
81310,-25.500282715794324,-49.32344297209885,curitiba,PR
31560,-19.834637615875124,-43.972049330428696,belo horizonte,MG
44090,-12.28170145268046,-38.95587100582839,feira de santana,BA
9560,-23.639000692894413,-46.55846278564987,são caetano do sul,SP
15085,-20.83823306657039,-49.38599894033018,sao jose do rio preto,SP
14230,-21.319245,-47.5700895,serra azul,SP
49300,-11.18220237744387,-37.995787724587096,tobias barreto,SE
36300,-21.131298,-44.25482924999999,sao joao del rei,MG
5435,-23.550775983899836,-46.68989560283338,sao paulo,SP
6286,-23.506438756044723,-46.77136771161072,osasco,SP
97542,-29.78343332203724,-55.7954320967786,alegrete,RS
23082,-22.890419077990643,-43.57520178518661,rio de janeiro,RJ
12327,-23.30551446932889,-45.97637862600266,jacarei,SP
14120,-21.238827840169595,-47.97514856805903,dumont,SP
35736,-19.37337020175121,-44.063618582923255,funilandia,MG
35059,-18.840675626394184,-41.94833127233421,governador valadares,MG
86910,-23.702403535933797,-51.63796801376384,marumbi,PR
7793,-23.41273897564752,-46.84083057313486,cajamar,SP
62250,-4.332962769902816,-40.72169015684284,ipu,CE
37190,-21.37629643811565,-45.51633053793285,tres pontas,MG
1303,-23.55104087093889,-46.64781522355593,sao paulo,SP
86046,-23.34881349615165,-51.14654337238578,londrina,PR
79825,-22.22091962846114,-54.80866184899305,dourados,MS
18053,-23.498421821253437,-47.52309181363604,sorocaba,SP
1333,-23.56338911212421,-46.65197488398066,sao paulo,SP
75902,-17.783735197493026,-50.94181749373257,rio verde,GO
4055,-23.623494736886144,-46.64194340896761,sao paulo,SP
15015,-20.81203562751878,-49.38271800898824,são josé do rio preto,SP
5440,-23.5464903075192,-46.69229742991519,sao paulo,SP
11630,-23.79066502903293,-45.36074706068905,ilhabela,SP
84990,-24.14070606984741,-49.82932906206422,arapoti,PR
22411,-22.983525471002324,-43.19899286955393,rio de janeiro,RJ
5756,-23.6261685662075,-46.75528483749092,sao paulo,SP
59198,-6.489401487553692,-35.28895124142214,montanhas,RN
47590,-11.820200807441951,-42.60958919093076,ipupiara,BA
5128,-23.493669401061748,-46.74186492881868,sao paulo,SP
11070,-23.95465885152052,-46.34197730169081,santos,SP
25750,-22.328726096349563,-43.13171793747401,petropolis,RJ
22631,-23.004823211495157,-43.32549178850486,rio de janeiro,RJ
11750,-24.30915804844584,-46.997916597227565,peruibe,SP
4379,-23.65868728282069,-46.65449342200935,sao paulo,SP
14530,-20.180587088530974,-48.02328891959168,miguelopolis,SP
22051,-22.97356608549247,-43.18974742798194,rio de janeiro,RJ
28010,-21.765429444077025,-41.32235947683871,campos dos goytacazes,RJ
81170,-25.50802664501703,-49.320609144468776,curitiba,PR
21921,-22.80906346325296,-43.18188824401619,rio de janeiro,RJ
29060,-20.286425161155577,-40.29555372626769,vitoria,ES
79640,-20.77748404306568,-51.72167353210399,tres lagoas,MS
13401,-22.73578618230213,-47.66276960935254,piracicaba,SP
55750,-7.857635725265391,-35.76987643786273,surubim,PE
13848,-22.34125110387064,-46.928371109673,mogi guaçu,SP
6900,-23.868975802126744,-46.79222908583607,embu-guacu,SP
14840,-21.37049888664447,-48.24212260867416,guariba,SP
18071,-23.45790224868713,-47.50299972245942,sorocaba,SP
60170,-3.729866741877795,-38.490946301431016,fortaleza,CE
35938,-19.83061749024425,-43.09750740145941,bela vista de minas,MG
3642,-23.527326467943908,-46.53476264501703,sao paulo,SP
37750,-21.674416226233067,-45.919504909898336,machado,MG
35600,-19.730598624269486,-45.26416850950182,bom despacho,MG
33045,-19.754716970157087,-43.88310218117166,santa luzia,MG
39670,-17.864479006799446,-42.86480685789625,itamarandiba,MG
14030,-21.197102889660226,-47.846850524282125,ribeirao preto,SP
38540,-18.48044346986403,-47.40455706431309,abadia dos dourados,MG
26070,-22.713497581881697,-43.43268070779457,nova iguacu,RJ
7717,-23.33471289894497,-46.75881611991267,caieiras,SP
20271,-22.91456685290549,-43.231376111979976,rio de janeiro,RJ
78740,-16.477143579519854,-54.62135501304174,rondonopolis,MT
7700,-23.360543219016645,-46.739631206195575,caieiras,SP
72035,-15.872936383463808,-48.03623744702968,brasilia,DF
74967,-16.81389834627944,-49.28958780043209,aparecida de goiania,GO
30130,-19.928254265047094,-43.92755596641468,belo horizonte,MG
31320,-19.8866430313636,-43.98278326158465,belo horizonte,MG
88340,-27.02802733936088,-48.65421504252558,camboriu,SC
8253,-23.555237228143568,-46.43829265029716,sao paulo,SP
6288,-23.500730283109164,-46.76941274617697,osasco,SP
65398,-3.670844234502311,-45.84642562315729,alto alegre do pindare,MA
32235,-19.979270446614127,-44.03918062887016,contagem,MG
2517,-23.509400752149578,-46.66165941716191,sao paulo,SP
5875,-23.693837700975138,-46.78003518666689,sao paulo,SP
9190,-23.672066782749415,-46.53558686685718,santo andre,SP
36202,-21.21569494254015,-43.77810417469656,barbacena,MG
1154,-23.531867563186864,-46.66185691959824,sao paulo,SP
12951,-23.125958321705067,-46.58379214630368,atibaia,SP
94818,-29.99956864742701,-51.063536859618026,alvorada,RS
37567,-22.15670099810057,-45.75516702374868,sao sebastiao da bela vista,MG
35960,-19.96140906948431,-43.408452463882696,santa barbara,MG
17201,-22.29360304218364,-48.56097751901435,jau,SP
89252,-26.49195280835361,-49.10046050121655,jaragua do sul,SC
65072,-2.4945984271452315,-44.24324232361937,sao luis,MA
72878,-16.059690624997284,-47.98221584165004,valparaiso de goias,GO
18273,-23.352911063491412,-47.83021001614749,tatui,SP
9420,-23.7164301989104,-46.41305843606453,ribeirao pires,SP
4241,-23.622307103525863,-46.58758138190316,são paulo,SP
9530,-23.623106475497824,-46.57868647549782,são caetano do sul,SP
17160,-22.03848554259568,-48.91274371272055,arealva,SP
31620,-19.80559142048013,-43.96510848641001,belo horizonte,MG
8745,-23.54672350650585,-46.2392957445268,mogi das cruzes,SP
45607,-14.809554199549922,-39.27123572078597,itabuna,BA
29890,-18.12634376898197,-40.36648800533127,montanha,ES
13150,-22.638354046040444,-47.18532030417903,cosmopolis,SP
11705,-24.030853247883712,-46.49296859764144,praia grande,SP
39723,-18.842843886057587,-42.28899394296322,sao geraldo da piedade,MG
13505,-22.382048540264,-47.57468051833312,rio claro,SP
89275,-26.42062042462805,-49.06209388445162,schroeder,SC
71917,-15.83620023421393,-48.03252705147205,brasilia,DF
31744,-19.81150197945644,-43.94314334776961,belo horizonte,MG
18078,-23.435784949877142,-47.46936103830192,sorocaba,SP
7500,-23.315319532627885,-46.2245332536923,santa isabel,SP
78450,-13.80981976918306,-56.07802277445256,nova mutum,MT
17018,-22.36399361310517,-49.04858155011815,bauru,SP
5372,-23.58295108935896,-46.76216816013624,sao paulo,SP
56850,-7.949216008545798,-37.7885205527464,flores,PE
83823,-25.66186245439245,-49.29181756589479,fazenda rio grande,PR
38760,-19.10946617488532,-46.67953951569352,serra do salitre,MG
92310,-29.909584995335216,-51.18825417914563,canoas,RS
13224,-23.211726736610167,-46.82573479340649,varzea paulista,SP
3946,-23.59490949096897,-46.4920084483813,sao paulo,SP
5025,-23.527256940879475,-46.68567755704306,são paulo,SP
11045,-23.97378377961804,-46.32173566305044,santos,SP
20260,-22.915411596716545,-43.21169880489348,rio de janeiro,RJ
62050,-3.7087435395519104,-40.334400005543394,sobral,CE
9060,-23.66891985292301,-46.54911143204402,santo andré,SP
16903,-20.906925233971947,-51.39462172009348,andradina,SP
78110,-15.640333222199132,-56.1364786296508,varzea grande,MT
4469,-23.694515884817367,-46.669010290870766,são paulo,SP
18010,-23.497392615931357,-47.45825186700412,sorocaba,SP
18273,-23.351973825161345,-47.831999601745096,tatui,SP
30570,-19.960899118789317,-43.97530148364003,belo horizonte,MG
35170,-19.48459382745995,-42.63105400015651,coronel fabriciano,MG
22430,-22.980792288937536,-43.21894759325409,rio de janeiro,RJ
13251,-22.99234031502666,-46.82890861165871,itatiba,SP
35162,-19.481248786815296,-42.585703930220525,ipatinga,MG
28950,-22.74946838728072,-41.87833547982427,armacao dos buzios,RJ
7230,-23.454773601996667,-46.45576859186912,guarulhos,SP
11630,-23.827685006343785,-45.3671714494925,ilhabela,SP
11360,-23.94023403951856,-46.397613497035024,sao vicente,SP
6240,-23.498019324456084,-46.80654792368279,osasco,SP
55660,-8.24052963505032,-35.778962944106915,bezerros,PE
36570,-20.75388660425459,-42.82649049667833,vicosa,MG
92120,-29.948102488458808,-51.17563378282071,canoas,RS
4143,-23.616397959201336,-46.63519994685208,sao paulo,SP
65500,-3.7477066394574594,-43.36417005301464,chapadinha,MA
26011,-22.756054245295022,-43.43005844214209,nova iguacu,RJ
89900,-26.724071693283108,-53.5103730075189,sao miguel do oeste,SC
5311,-23.526225596456747,-46.73898242102839,são paulo,SP
11070,-23.953481077442387,-46.3364570589763,santos,SP
77600,-10.177332515422467,-48.88827885869645,paraiso do tocantins,TO
27930,-22.395431368585545,-41.81444550784649,macae,RJ
5415,-23.562401563419694,-46.6830074650297,são paulo,SP
89520,-27.3006670697534,-50.567563994395535,curitibanos,SC
5726,-23.625364075768942,-46.74214856050551,são paulo,SP
98930,-27.65624234972174,-54.434601238782,tucunduva,RS
18214,-23.581352921938645,-48.021063660581135,itapetininga,SP
6331,-23.543463143023864,-46.83382546997101,carapicuíba,SP
5546,-23.58589130114256,-46.77165507132555,sao paulo,SP
86802,-23.56254777011328,-51.47836754241511,apucarana,PR
2676,-23.45486133888281,-46.66993976380633,sao paulo,SP
24431,-22.829971068102207,-43.079798444072935,sao goncalo,RJ
79190,-20.440909697270065,-54.86918363892827,terenos,MS
25953,-22.41708536534327,-42.96753803326123,teresópolis,RJ
30510,-19.94129004607879,-44.00246723146179,belo horizonte,MG
65025,-2.5361229708580866,-44.29334759186912,sao luis,MA
9182,-23.692393948929556,-46.53224894116793,santo andre,SP
93950,-29.59165539133824,-51.10597249197857,dois irmaos,RS
56903,-7.985787610175445,-38.29266413582301,serra talhada,PE
37505,-22.41899471570743,-45.46478277178908,itajuba,MG
27910,-22.375933601444704,-41.77939705228218,macae,RJ
47120,-10.715333353473502,-43.63176840282451,buritirama,BA
12241,-23.233847008598342,-45.92416184055624,sao jose dos campos,SP
9080,-23.647951382739897,-46.53789889814756,santo andre,SP
9641,-23.652574500432696,-46.578689077990646,são bernardo do campo,SP
41830,-12.834364722923045,-38.45883770367033,salvador,BA
4165,-23.62085740161001,-46.60881082070517,sao paulo,SP
93510,-29.68306936351637,-51.12416901353354,novo hamburgo,RS
89124,-26.784999860025906,-49.37543776168118,benedito novo,SC
11432,-23.98922837607479,-46.2637784074384,guaruja,SP
20270,-22.916235363581304,-43.21950446251955,rio de janeiro,RJ
95995,-28.880219917179144,-52.1809255051572,arvorezinha,RS
6263,-23.492817722532465,-46.79032943965864,osasco,SP
6780,-23.621846019498168,-46.789416101589744,taboao da serra,SP
25260,-22.64716176982086,-43.26592593943164,duque de caxias,RJ
35510,-20.192793894387663,-44.76555728250532,carmo do cajuru,MG
28500,-21.98131553000994,-42.36976815108138,cantagalo,RJ
36820,-20.607283914377625,-42.143807793590135,divino,MG
17300,-22.3656475645614,-48.37405319707248,dois corregos,SP
29480,-20.95635395973015,-41.34332236476864,muqui,ES
78280,-15.673854395935573,-58.09869086709389,mirassol d oeste,MT
71020,-15.822059560083682,-47.98034488401232,brasília,DF
26022,-22.720694124232505,-43.44518547496233,nova iguacu,RJ
85859,-25.514069532580248,-54.52818043967735,foz do iguaçu,PR
38600,-17.222267119419712,-46.87712892688495,paracatu,MG
13560,-22.016850463788963,-47.88503949708581,sao carlos,SP
33400,-19.644544238044038,-43.88098173812698,lagoa santa,MG
3973,-23.622318503462456,-46.48124224854291,são paulo,SP
26127,-22.734962250650156,-43.42281802753307,belford roxo,RJ
28740,-22.082349475836267,-41.87571502109893,conceicao de macabu,RJ
6851,-23.715359116621173,-46.85519162316479,itapecerica da serra,SP
79081,-20.49562674326278,-54.633211951439705,campo grande,MS
21235,-22.83361045989382,-43.31873428752389,rio de janeiro,RJ
32340,-19.94621101473164,-44.054305603014114,contagem,MG
14026,-21.215428092705835,-47.827025874545576,ribeirao preto,SP
56306,-9.387622869529736,-40.51267251963026,petrolina,PE
21230,-22.826090857938805,-43.3223174204789,rio de janeiro,RJ
4641,-23.63944475936294,-46.6869450180334,sao paulo,SP
24130,-22.880053558205685,-43.09589578298053,niteroi,RJ
3634,-23.52434082320221,-46.54744934160408,sao paulo,SP
7130,-23.446048913959263,-46.52207247737897,guarulhos,SP
81730,-25.50943909909912,-49.22548214994743,curitiba,PR
4256,-23.631045653067105,-46.58641798251486,sao paulo,SP
47850,-12.089061098532447,-45.806955762802495,luís eduardo magalhães,BA
14010,-21.173863624913825,-47.81254210113768,ribeirão preto,SP
22071,-22.981259702204312,-43.19274366388715,rio de janeiro,RJ
88050,-27.50782456036128,-48.51343236063845,florianopolis,SC
81250,-25.47948963558197,-49.339561521640086,curitiba,PR
30160,-19.924888201223364,-43.93742578183974,belo horizonte,MG
75570,-18.21903652098216,-49.73886803545583,bom jesus,GO
6705,-23.58808207826033,-46.89813030802782,cotia,SP
22713,-22.928463028898054,-43.40229668038406,rio de janeiro,RJ
36520,-21.01077593650225,-42.83930183686557,visconde do rio branco,MG
34710,-19.8769435569604,-43.902891931862,sabara,MG
66080,-1.4381932096326424,-48.45954742893308,belem,PA
18720,-23.38203855174885,-48.728917057680086,paranapanema,SP
17026,-22.29345202016961,-49.0457614900056,bauru,SP
55200,-8.366189680427647,-36.69426956837394,pesqueira,PE
68515,-6.081430460350546,-49.88210364904509,parauapebas,PA
35901,-19.661195230160374,-43.22484603343052,itabira,MG
64052,-5.068153763974808,-42.77612364892636,teresina,PI
75025,-16.328349999999944,-48.95726999999994,anapolis,GO
22730,-22.91755858382983,-43.37183344332693,rio de janeiro,RJ
3357,-23.564372510964272,-46.556673129609365,são paulo,SP
60730,-3.7909466126543134,-38.579946091049365,fortaleza,CE
98400,-27.368041840229058,-53.39847167353396,frederico westphalen,RS
30720,-19.91366353621104,-43.97700172009348,belo horizonte,MG
47100,-11.094909516073493,-43.16064735489376,barra,BA
47850,-12.089698346029763,-45.79618023024447,luis eduardo magalhaes,BA
39920,-15.897371961563096,-40.17686213906271,jordania,MG
28940,-22.86092951459223,-42.10538745528814,são pedro da aldeia,RJ
8579,-23.46029012333837,-46.36702457114806,itaquaquecetuba,SP
91380,-30.01249567415893,-51.14336486332152,porto alegre,RS
13087,-22.84978530591258,-47.04274664919556,campinas,SP
39527,-15.39608977583366,-42.8628070914373,mato verde,MG
18202,-23.58350133698645,-48.017664538469056,itapetininga,SP
3343,-23.55969513351698,-46.56974506710258,sao paulo,SP
37750,-21.672123697709598,-45.92313019344504,machado,MG
2021,-23.496580818584334,-46.636546259367634,sao paulo,SP
3408,-23.54553384928566,-46.55301970789138,sao paulo,SP
3471,-23.56837491257428,-46.51999801387845,sao paulo,SP
95670,-29.373137655932812,-50.88404458508424,gramado,RS
9950,-23.68014981262643,-46.58082520497429,diadema,SP
31360,-19.86567393282939,-44.01750638314393,belo horizonte,MG
9260,-23.62682948320735,-46.50237391381502,santo andre,SP
37440,-21.97812053751782,-44.9351975299944,caxambu,MG
6065,-23.55339580154659,-46.78759952011086,osasco,SP
56308,-9.392841048876234,-40.51518319443985,petrolina,PE
69095,-3.0367647346644477,-59.97679977921401,manaus,AM
30840,-19.887051531219367,-44.002063241877785,belo horizonte,MG
8225,-23.53109832722605,-46.46323689953253,sao paulo,SP
5041,-23.523895623925213,-46.691459916180975,são paulo,SP
13218,-23.1801802015831,-46.79370160870703,jundiai,SP
1453,-23.581501543164592,-46.68735677436658,sao paulo,SP
6365,-23.548264585910907,-46.84819915731688,carapicuiba,SP
22261,-22.959691521524512,-43.20146928988984,rio de janeiro,RJ
59340,-6.215890768311052,-36.68049919056134,sao vicente,RN
12070,-23.016920032650635,-45.54428363391369,taubate,SP
88220,-27.118093151421643,-48.60882405482961,itapema,SC
35420,-20.386681637803672,-43.42412159394659,mariana,MG
86200,-23.273738333942585,-51.044625600992845,ibiporã,PR
38190,-19.86041696598249,-47.432248324201296,sacramento,MG
21750,-22.8796111984534,-43.41651342881867,rio de janeiro,RJ
21932,-22.79746531779098,-43.210997104218364,rio de janeiro,RJ
26556,-22.778466964425743,-43.434246433035895,mesquita,RJ
28030,-21.76523476774185,-41.34265648279563,campos dos goytacazes,RJ
38700,-18.592305989088725,-46.51621959923619,patos de minas,MG
4718,-23.62899044685208,-46.70392937454557,sao paulo,SP
90010,-30.03629784595194,-51.23798743810951,porto alegre,RS
28085,-21.726962446765334,-41.304228121903854,campos dos goytacazes,RJ
73813,-15.549461937272785,-47.329127601448405,formosa,GO
28960,-22.828540797176604,-42.20098373573104,iguaba grande,RJ
7718,-23.34027091773255,-46.75633660760888,caieiras,SP
68377,-3.1925249999999967,-52.20600074999999,altamira,PA
37590,-22.28147473025,-46.601210253883295,jacutinga,MG
5015,-23.535412773529867,-46.670007620722544,sao paulo,SP
11630,-23.828343724953022,-45.36067721064045,ilhabela,SP
38740,-18.938090887249448,-46.99063066121604,patrocinio,MG
70386,-15.832741499999992,-47.9245275,brasilia,DF
25940,-22.6637755504997,-43.02025836504258,guapimirim,RJ
95190,-28.974223047442354,-51.07805289228693,sao marcos,RS
22630,-23.01105563445679,-43.32792926380635,rio de janeiro,RJ
78285,-15.626698917891504,-58.18148595499631,são josé dos quatro marcos,MT
57035,-9.659916419095154,-35.70956939731084,maceio,AL
35010,-18.85824418426634,-41.9504331727089,governador valadares,MG
81280,-25.44183443967013,-49.35334884330696,curitiba,PR
30140,-19.932008877055743,-43.92891883749783,belo horizonte,MG
7085,-23.425007814876796,-46.55343493658029,guarulhos,SP
76400,-14.533561186738437,-49.13166408283558,uruacu,GO
65680,-6.180389159545589,-43.78796128519709,passagem franca,MA
7252,-23.443251789341573,-46.402689819175954,guarulhos,SP
76801,-8.754078853341452,-63.90062415726487,porto velho,RO
74681,-16.621799913303157,-49.20151087179472,goiania,GO
13172,-22.816970652814096,-47.29013909845309,sumare,SP
12380,-23.39689751736355,-45.88440754205058,santa branca,SP
38409,-18.9265897880202,-48.21501232422006,uberlandia,MG
6608,-23.53399726251153,-46.91280911712257,jandira,SP
60841,-3.8145916339086616,-38.4974907983607,fortaleza,CE
23045,-22.915108068555597,-43.56325087134292,rio de janeiro,RJ
71694,-15.90963081833698,-47.75266554522584,brasília,DF
30622,-19.9876181379479,-43.9898750888107,belo horizonte,MG
6132,-23.55043868748913,-46.79991813962135,osasco,SP
86185,-23.279722113797654,-51.24429040259097,cambe,PR
48790,-10.962610782563544,-38.78755853111427,tucano,BA
85601,-26.081143959026637,-53.06128579756844,francisco beltrao,PR
5728,-23.63280320739602,-46.739237617304966,sao paulo,SP
4244,-23.624294647238727,-46.59099175867045,sao paulo,SP
6266,-23.488957435195324,-46.79331958869512,osasco,SP
3981,-23.6115988642738,-46.51857536441801,são paulo,SP
30530,-19.93160908465575,-43.9981500807606,belo horizonte,MG
94110,-29.90420270774424,-51.05912991465176,gravatai,RS
16013,-21.226862954757937,-50.42248475007212,aracatuba,SP
40717,-12.892583772158416,-38.47798879155312,salvador,BA
39480,-15.49172180774403,-44.36454722591401,januaria,MG
3306,-23.543005704137556,-46.57616880489346,sao paulo,SP
5717,-23.63512307271053,-46.7324636744474,sao paulo,SP
11250,-23.79565315764188,-46.00703533039894,bertioga,SP
7600,-23.329687948044867,-46.59366070260938,mairipora,SP
79020,-20.46016991866247,-54.5948153798257,campo grande,MS
32070,-19.895272338583432,-44.10141501643958,contagem,MG
28035,-21.759378385759565,-41.33083902968167,campos dos goytacazes,RJ
24020,-22.89123057236368,-43.1231674633952,niteroi,RJ
39460,-14.75155461362509,-43.940764759022365,manga,MG
3015,-23.53718574381104,-46.59403568082404,sao paulo,SP
29900,-19.383854626066327,-40.07436173374647,linhares,ES
26440,-22.645266274051437,-43.6476616126235,japeri,RJ
35420,-20.39734822784341,-43.41552731371241,mariana,MG
8050,-23.50634616902304,-46.45734212476192,sao paulo,SP
19700,-22.44048998045865,-50.582161119879466,paraguacu paulista,SP
37968,-21.191030454104208,-46.9753357208041,monte santo de minas,MG
95330,-28.942755256193585,-51.556329056281335,veranópolis,RS
8775,-23.4986021294281,-46.186007972061525,mogi das cruzes,SP
24110,-22.863458605789887,-43.09742245879604,niteroi,RJ
17054,-22.344461314327276,-49.08675358489817,bauru,SP
36900,-20.274382813161367,-42.04143718705188,manhuaçu,MG
58302,-7.15255838402905,-34.96096664328584,santa rita,PB
13835,-22.33120840446673,-47.16075156041869,conchal,SP
7142,-23.41769879877663,-46.49241651318598,guarulhos,SP
6766,-23.6277772352208,-46.78038972337979,taboão da serra,SP
17900,-21.487246619255597,-51.54031316907197,dracena,SP
17519,-22.229006412878057,-49.938401413772745,marilia,SP
24130,-22.8796102749367,-43.10091591793149,niteroi,RJ
18055,-23.49181797890817,-47.51249846808814,sorocaba,SP
97043,-29.676090139594574,-53.81971077485941,santa maria,RS
16880,-21.229854218540293,-50.86523082500572,valparaiso,SP
8470,-23.590549571469776,-46.40498861157595,sao paulo,SP
13735,-21.46882280582204,-46.99882465815975,mococa,SP
88845,-28.603499241654443,-49.31380901517499,cocal do sul,SC
2990,-23.42739714210284,-46.72653053220033,sao paulo,SP
30360,-19.961242679439053,-43.946892900917526,belo horizonte,MG
84200,-24.260968454948905,-49.72500237656334,jaguariaiva,PR
12120,-22.974554788998613,-45.54259849831491,tremembe,SP
6332,-23.549729985579063,-46.83116062693497,carapicuiba,SP
69960,-8.163284074656861,-70.35078249840723,feijó,AC
4547,-23.59867855176293,-46.68450850069249,são paulo,SP
4105,-23.578953042512538,-46.63645759716582,sao paulo,SP
22775,-22.952381301690828,-43.377015824311854,rio de janeiro,RJ
18604,-22.877240756255198,-48.42688857633894,botucatu,SP
27930,-22.40455712580103,-41.80631734074976,macae,RJ
31140,-19.89412467924161,-43.93419290990549,belo horizonte,MG
39243,-18.733905,-44.37032175,inimutaba,MG
35450,-20.23911242820405,-43.80171945299326,itabirito,MG
22793,-23.004532667205364,-43.38240342936694,rio de janeiro,RJ
88371,-26.86998756966993,-48.68665330464465,navegantes,SC
26010,-22.754237967338412,-43.4268685681125,nova iguacu,RJ
17340,-22.49654476294028,-48.54992212818021,barra bonita,SP
1104,-23.534648780454773,-46.63169661587512,sao paulo,SP
38780,-17.985472924768985,-46.90785106020889,vazante,MG
11432,-23.987659442408685,-46.27504517124473,guaruja,SP
29400,-21.062957227924954,-41.36786696308643,mimoso do sul,ES
89570,-27.04600110988704,-51.23217835466098,pinheiro preto,SC
31130,-19.893845965029712,-43.94740044699632,belo horizonte,MG
35900,-19.622465338097022,-43.21046060891952,itabira,MG
21231,-22.82942566916727,-43.321897544693805,rio de janeiro,RJ
3073,-23.53118403081535,-46.55541562199196,sao paulo,SP
6900,-23.837669764261975,-46.82435834822277,embu-guacu,SP
1142,-23.51993430515264,-46.6251300217966,sao paulo,SP
90020,-30.030793691355612,-51.23250117291819,porto alegre,RS
63470,-6.032786896081977,-38.34966981822871,erere,CE
11025,-23.969144999999948,-46.30697899999996,santos,SP
18320,-24.50695637448072,-48.84697570185308,apiai,SP
89254,-26.47623242856529,-49.10869890783792,jaragua do sul,SC
30510,-19.938003296150903,-43.99076020552252,belo horizonte,MG
3820,-23.496269316873995,-46.49958357918554,sao paulo,SP
15035,-20.815375649595104,-49.41342339915771,sao jose do rio preto,SP
6755,-23.60222058090484,-46.76654100721337,taboao da serra,SP
54450,-8.20149376464307,-34.92182054428978,jaboatão dos guararapes,PE
83203,-25.51911684428598,-48.506182444123496,paranagua,PR
5713,-23.623641953921208,-46.73308375867044,são paulo,SP
9551,-23.622907892319187,-46.55515704356863,sao caetano do sul,SP
7095,-23.456406666945565,-46.53425916902305,guarulhos,SP
27930,-22.403121820975446,-41.82612165003473,macaé,RJ
6246,-23.50178451872176,-46.80795761622947,osasco,SP
6700,-23.609187050439854,-46.94553757491008,cotia,SP
40352,-12.942243116741002,-38.4786568765398,salvador,BA
87050,-23.42181931586704,-51.92719064018155,maringa,PR
13150,-22.644535293183395,-47.18922323062218,cosmopolis,SP
88702,-28.46826233339081,-49.05621462181307,tubarao,SC
1308,-23.55641963281201,-46.65272290521668,sao paulo,SP
91530,-30.058241416873454,-51.16540455358059,porto alegre,RS
78435,-14.726185998889584,-56.324062661379216,são josé do rio claro,MT
81210,-25.44141254342439,-49.3282935,curitiba,PR
64016,-5.074349668899549,-42.81715095926672,teresina,PI
85015,-25.403879085204004,-51.46669376686477,guarapuava,PR
3561,-23.548522117404342,-46.49573558021234,são paulo,SP
40100,-12.993844499999998,-38.51543249999999,salvador,BA
38183,-19.593701740596806,-46.93441989036604,araxa,MG
85810,-24.952825486005967,-53.46856297599398,cascavel,PR
68380,-6.6406271227399705,-51.97717081325147,sao felix do xingu,PA
99150,-28.44047554090533,-52.2040643449172,marau,RS
57040,-9.6521016513302,-35.726468796894245,maceio,AL
88037,-27.599874317790984,-48.5110192425703,florianopolis,SC
87345,-24.59761712697929,-52.80959251572221,campina da lagoa,PR
37480,-21.97569008814568,-45.35391026124311,lambari,MG
15130,-20.806123815553597,-49.51015309407113,mirassol,SP
18270,-23.3474047775767,-47.847371989365314,tatui,SP
74423,-16.68630606881319,-49.3132224413169,goiania,GO
85440,-24.55297810874504,-52.984567818601775,ubirata,PR
4564,-23.611504233135232,-46.68607290758261,sao paulo,SP
17580,-22.11038009141072,-50.17145961679208,pompeia,SP
98400,-27.352913850382865,-53.39371578892436,frederico westphalen,RS
20250,-22.92036277880998,-43.20532974937964,rio de janeiro,RJ
6474,-23.4872051509716,-46.84765494517493,barueri,SP
88134,-27.680801952521342,-48.64706431680811,palhoca,SC
21380,-22.887711534277795,-43.31933127254892,rio de janeiro,RJ
78735,-16.48975746087432,-54.6042068934319,rondonopolis,MT
22795,-23.02462615543304,-43.46098117776561,rio de janeiro,RJ
32678,-19.93531757967678,-44.20587080519537,betim,MG
35420,-20.372995647121343,-43.41338917643934,mariana,MG
4447,-23.680001211206687,-46.684215671648765,sao paulo,SP
89010,-26.91888104440639,-49.079028134500646,blumenau,SC
31310,-19.87074518595992,-43.98568584595193,belo horizonte,MG
86020,-23.31204371344097,-51.16156578655901,londrina,PR
5356,-23.563412528997677,-46.75332052553523,sao paulo,SP
9181,-23.677246259487305,-46.52579426104733,santo andre,SP
37135,-21.42110276272765,-45.966988967785326,alfenas,MG
8526,-23.557484304749245,-46.38491323175023,ferraz de vasconcelos,SP
8750,-23.55041796801836,-46.25277374889451,mogi das cruzes,SP
5545,-23.584642212726347,-46.77070242560782,sao paulo,SP
38037,-19.77281045695996,-47.917178052434345,uberaba,MG
35540,-20.702979000000003,-44.82734849999999,oliveira,MG
1150,-23.531997573403025,-46.65853269885743,sao paulo,SP
18650,-22.759349843835583,-48.57299901331331,são manuel,SP
9780,-23.718941717727564,-46.538441370534855,sao bernardo do campo,SP
14811,-21.778439448237062,-48.14560473619365,araraquara,SP
31140,-19.890405157635502,-43.93075871730715,belo horizonte,MG
21660,-22.842192237578637,-43.378605817098496,rio de janeiro,RJ
85063,-25.359987678313868,-51.45747698681402,guarapuava,PR
4255,-23.623587681372296,-46.59150604163539,sao paulo,SP
4216,-23.59831847821568,-46.60413132361936,sao paulo,SP
15310,-20.64511819526192,-50.22402633196981,magda,SP
64003,-5.078522654623713,-42.82371141161967,teresina,PI
41218,-12.93835060798946,-38.43994619334016,salvador,BA
61700,-3.942396825708705,-38.29416056466855,aquiraz,CE
2376,-23.455839164031385,-46.62805341716192,sao paulo,SP
12460,-22.739658605728327,-45.59427504675164,campos do jordao,SP
99930,-27.913003849764245,-52.2634921442466,estacao,RS
25235,-22.71102543010344,-43.31362596883536,duque de caxias,RJ
8735,-23.53392973250452,-46.218557040675,mogi das cruzes,SP
88860,-28.593462198775025,-49.42697577439769,siderópolis,SC
88053,-27.44055448349581,-48.50831919983837,florianopolis,SC
35195,-19.22267229547461,-42.48776256193023,belo oriente,MG
4476,-23.704844049685462,-46.62683798211083,sao paulo,SP
12246,-23.211814347221356,-45.90881673619364,sao jose dos campos,SP
7121,-23.45036148542904,-46.52169417346644,guarulhos,SP
73900,-14.08761117853902,-46.35284848652327,posse,GO
28070,-21.71728547380446,-41.32262598087221,campos dos goytacazes,RJ
88060,-27.490328528997672,-48.41499108090483,florianopolis,SC
24933,-22.967136,-42.9518362188512,maricá,RJ
28970,-22.857903,-42.33255975000001,araruama,RJ
13101,-22.90395020834545,-47.0034935140607,campinas,SP
25680,-22.501610265657984,-43.18663030808101,petropolis,RJ
12460,-22.68098131408582,-45.58815925984138,campos do jordao,SP
51160,-8.111045907237461,-34.90409840498038,recife,PE
75901,-17.79511817077587,-50.9295017574668,rio verde,GO
80320,-25.457282802094845,-49.29118612308847,curitiba,PR
21032,-22.86172858728148,-43.25471092754927,rio de janeiro,RJ
11740,-24.19125376778212,-46.82163532503053,itanhaem,SP
28750,-22.06715991149126,-42.06160087588309,trajano de moraes,RJ
20080,-22.903372534964117,-43.18873569533812,rio de janeiro,RJ
83321,-25.45086056067003,-49.179628473253146,pinhais,PR
13070,-22.897422712735896,-47.07716665543303,campinas,SP
5092,-23.514143065690625,-46.71363539770464,sao paulo,SP
7840,-23.31097843856688,-46.73221303080034,franco da rocha,SP
1535,-23.56905368388245,-46.623990142939554,sao paulo,SP
6120,-23.54511817874656,-46.790184631542594,osasco,SP
5717,-23.633342549541243,-46.73207368942239,sao paulo,SP
5816,-23.665657002221703,-46.738813583819024,sao paulo,SP
30170,-19.931336318627704,-43.939828481966586,belo horizonte,MG
2918,-23.49508588991843,-46.71850713859618,sao paulo,SP
6810,-23.6446315795326,-46.8035587128323,embu das artes,SP
7998,-23.291803268069412,-46.73391251791946,francisco morato,SP
14540,-20.040421986842063,-47.74663855775286,igarapava,SP
6866,-23.756879430516538,-46.807536926409846,itapecerica da serra,SP
57390,-10.058129820454525,-36.81269635551255,olho dágua grande,AL
6420,-23.508200150200985,-46.894268777771714,barueri,SP
25581,-22.789661046298946,-43.35235631025363,são joão de meriti,RJ
63560,-6.090337010074316,-39.4529734772656,acopiara,CE
83750,-25.7569755846385,-49.7149928943598,lapa,PR
68537,-6.532927671701442,-49.85333386943581,canaa dos carajas,PA
87075,-23.396539184783443,-51.97204997170409,maringa,PR
16022,-21.22978346814757,-50.464380638222906,aracatuba,SP
30441,-19.93554129854527,-43.95309116419413,belo horizonte,MG
2201,-23.492111039413683,-46.597117908823385,sao paulo,SP
13871,-21.98511719852403,-46.80366077557576,sao joao da boa vista,SP
13760,-21.468848415119822,-46.75170300505352,tapiratiba,SP
85465,-25.42644027027387,-52.83850508558672,espigao alto do iguacu,PR
45700,-15.254154700290576,-40.25426403459248,itapetinga,BA
1231,-23.536429155981292,-46.659573450458765,sao paulo,SP
93032,-29.781109799818143,-51.12481163161891,são leopoldo,RS
8050,-23.51308052490393,-46.45875549640549,sao paulo,SP
47400,-10.822091157471515,-42.7287661975664,xique-xique,BA
88358,-27.15356160421836,-48.938113173466434,brusque,SC
32183,-19.872296833758178,-44.04543075954292,contagem,MG
85460,-25.45281137892243,-52.91103539455795,quedas do iguaçu,PR
76908,-10.882962959368612,-61.93849714343392,ji-parana,RO
22410,-22.983773489324182,-43.21397325437127,rio de janeiro,RJ
99010,-28.24627828503352,-52.38872095500711,passo fundo,RS
